[{"datasetid": "estaciones-metro", "recordid": "f6c1de4011c42d0d05e19383a2aca8f1d026c380", "fields": {"stop_lat": 19.44864628, "geometry": {"type": "Point", "coordinates": [-99.17122364, 19.44864628]}, "stop_lon": -99.17122364, "geopoint": [19.44864628, -99.17122364], "agency_id": "METRO", "trip_heads": "Cuatro Caminos - Tasque\u00f1a", "stop_desc": "Metro 2", "stop_name": "Colegio Militar", "stop_id": 14124.0}, "geometry": {"type": "Point", "coordinates": [-99.17122364, 19.44864628]}, "record_timestamp": "2019-01-16T17:08:31.562-06:00"},{"datasetid": "estaciones-metro", "recordid": "3386ff045ee1daf87e2354625cd75ee0e5129e87", "fields": {"stop_lat": 19.42025648, "geometry": {"type": "Point", "coordinates": [-99.17658806, 19.42025648]}, "stop_lon": -99.17658806, "geopoint": [19.42025648, -99.17658806], "agency_id": "METRO", "trip_heads": "Observatorio - Pantitl\u00e1n", "stop_desc": "Metro 1", "stop_name": "Chapultepec", "stop_id": 14119.0}, "geometry": {"type": "Point", "coordinates": [-99.17658806, 19.42025648]}, "record_timestamp": "2019-01-16T17:08:31.562-06:00"},{"datasetid": "estaciones-metro", "recordid": "535b838b14676d6c24184533961111244c3dc052", "fields": {"stop_lat": 19.378298, "geometry": {"type": "Point", "coordinates": [-99.10934, 19.378298]}, "stop_lon": -99.10934, "geopoint": [19.378298, -99.10934], "agency_id": "METRO", "trip_heads": "Garibaldi - Constituci\u00f3n de 1917", "stop_desc": "Metro 8", "stop_name": "Apatlaco", "stop_id": 14095.0}, "geometry": {"type": "Point", "coordinates": [-99.10934, 19.378298]}, "record_timestamp": "2019-01-16T17:08:31.562-06:00"},{"datasetid": "estaciones-metro", "recordid": "bfa5162abbf18de9e9155b9eb0339c364e06a695", "fields": {"stop_lat": 19.32025578, "geometry": {"type": "Point", "coordinates": [-99.08486724, 19.32025578]}, "stop_lon": -99.08486724, "geopoint": [19.32025578, -99.08486724], "agency_id": "METRO", "trip_heads": "Tl\u00e1huac - Mixcoac", "stop_desc": "Metro 12", "stop_name": "Calle 11", "stop_id": 14234.0}, "geometry": {"type": "Point", "coordinates": [-99.08486724, 19.32025578]}, "record_timestamp": "2019-01-16T17:08:31.562-06:00"},{"datasetid": "estaciones-metro", "recordid": "4c5419a7a248718eed8dfb06996defb8faebd361", "fields": {"stop_lat": 19.44542916, "geometry": {"type": "Point", "coordinates": [-99.08690572, 19.44542916]}, "stop_lon": -99.08690572, "geopoint": [19.44542916, -99.08690572], "agency_id": "METRO", "trip_heads": "Pantitl\u00e1n - Polit\u00e9cnico", "stop_desc": "Metro L\u00ednea 5 correspondencia con l\u00ednea B.", "stop_name": "Ocean\u00eda", "stop_id": 14061.0}, "geometry": {"type": "Point", "coordinates": [-99.08690572, 19.44542916]}, "record_timestamp": "2019-01-16T17:08:31.562-06:00"},{"datasetid": "estaciones-metro", "recordid": "a2147bc1f588591d866058167743c57077542eb2", "fields": {"stop_lat": 19.37567873, "geometry": {"type": "Point", "coordinates": [-99.18686628, 19.37567873]}, "stop_lon": -99.18686628, "geopoint": [19.37567873, -99.18686628], "agency_id": "METRO", "trip_heads": "Mixcoac - Tl\u00e1huac", "stop_desc": "Metro L\u00ednea 12 correspondencia con l\u00ednea 7.", "stop_name": "Mixcoac", "stop_id": 132131.0}, "geometry": {"type": "Point", "coordinates": [-99.18686628, 19.37567873]}, "record_timestamp": "2019-01-16T17:08:31.562-06:00"},{"datasetid": "estaciones-metro", "recordid": "453b0cec4c85e3e16acff80d448dfbc3f4a2302e", "fields": {"stop_lat": 19.40697045, "geometry": {"type": "Point", "coordinates": [-99.08233523, 19.40697045]}, "stop_lon": -99.08233523, "geopoint": [19.40697045, -99.08233523], "agency_id": "METRO", "trip_heads": "Tacubaya - Pantitl\u00e1n", "stop_desc": "Metro 9", "stop_name": "Puebla", "stop_id": 14068.0}, "geometry": {"type": "Point", "coordinates": [-99.08233523, 19.40697045]}, "record_timestamp": "2019-01-16T17:08:31.562-06:00"},{"datasetid": "estaciones-metro", "recordid": "c27b0e75c08408dc03fb3ffb930d580755d8ea8d", "fields": {"stop_lat": 19.468965, "geometry": {"type": "Point", "coordinates": [-99.136176, 19.468965]}, "stop_lon": -99.136176, "geopoint": [19.468965, -99.136176], "agency_id": "METRO", "trip_heads": "Pantitl\u00e1n - Polit\u00e9cnico", "stop_desc": "Metro L\u00ednea 5 correspondencia con l\u00ednea 3.", "stop_name": "La Raza_1_3", "stop_id": 14103.0}, "geometry": {"type": "Point", "coordinates": [-99.136176, 19.468965]}, "record_timestamp": "2019-01-16T17:08:31.562-06:00"},{"datasetid": "estaciones-metro", "recordid": "327a956aa210d6f96bb32e297f2832655fdfd5c1", "fields": {"stop_lat": 19.40894369, "geometry": {"type": "Point", "coordinates": [-99.12227869, 19.40894369]}, "stop_lon": -99.12227869, "geopoint": [19.40894369, -99.12227869], "agency_id": "METRO", "trip_heads": "Tacubaya - Pantitl\u00e1n", "stop_desc": "Metro L\u00ednea 9 correspondencia con l\u00ednea 4.", "stop_name": "Jamaica", "stop_id": 14144.0}, "geometry": {"type": "Point", "coordinates": [-99.12227869, 19.40894369]}, "record_timestamp": "2019-01-16T17:08:31.562-06:00"},{"datasetid": "estaciones-metro", "recordid": "79eee3cc12fd3e1406b61390d00c94109dc562d1", "fields": {"stop_lat": 19.42565962, "geometry": {"type": "Point", "coordinates": [-99.15455103, 19.42565962]}, "stop_lon": -99.15455103, "geopoint": [19.42565962, -99.15455103], "agency_id": "METRO", "trip_heads": "Observatorio - Pantitl\u00e1n", "stop_desc": "Metro 1", "stop_name": "Cuauht\u00e9moc_1_2", "stop_id": 14096.0}, "geometry": {"type": "Point", "coordinates": [-99.15455103, 19.42565962]}, "record_timestamp": "2019-01-16T17:08:31.562-06:00"},{"datasetid": "estaciones-metro", "recordid": "b3b9dd8f1e7c7ffa2f624f9ccb2719ddcf7c2db1", "fields": {"stop_lat": 19.49039233, "geometry": {"type": "Point", "coordinates": [-99.173702, 19.49039233]}, "stop_lon": -99.173702, "geopoint": [19.49039233, -99.173702], "agency_id": "METRO", "trip_heads": "Mart\u00edn Carrera - El Rosario", "stop_desc": "Metro 6", "stop_name": "Ferrer\u00eda", "stop_id": 14133.0}, "geometry": {"type": "Point", "coordinates": [-99.173702, 19.49039233]}, "record_timestamp": "2019-01-16T17:08:31.562-06:00"},{"datasetid": "estaciones-metro", "recordid": "98099a7a6d2af4cce2faa739295b25a2ebb272fc", "fields": {"stop_lat": 19.36186271, "geometry": {"type": "Point", "coordinates": [-99.14263129, 19.36186271]}, "stop_lon": -99.14263129, "geopoint": [19.36186271, -99.14263129], "agency_id": "METRO", "trip_heads": "Cuatro Caminos - Tasque\u00f1a", "stop_desc": "Metro 2", "stop_name": "Ermita", "stop_id": 14086.0}, "geometry": {"type": "Point", "coordinates": [-99.14263129, 19.36186271]}, "record_timestamp": "2019-01-16T17:08:31.562-06:00"},{"datasetid": "estaciones-metro", "recordid": "4ca94c7453b4ad2fa9dee49ede85470bc3faec83", "fields": {"stop_lat": 19.45913691, "geometry": {"type": "Point", "coordinates": [-99.18803573, 19.45913691]}, "stop_lon": -99.18803573, "geopoint": [19.45913691, -99.18803573], "agency_id": "METRO", "trip_heads": "Cuatro Caminos - Tasque\u00f1a", "stop_desc": "Metro L\u00ednea 2 correspondencia con l\u00ednea 7.", "stop_name": "Tacuba_1", "stop_id": 14112.0}, "geometry": {"type": "Point", "coordinates": [-99.18803573, 19.45913691]}, "record_timestamp": "2019-01-16T17:08:31.562-06:00"},{"datasetid": "estaciones-metro", "recordid": "436c65ed6668797f32ad2047d5010e1d57d804c6", "fields": {"stop_lat": 19.34400644, "geometry": {"type": "Point", "coordinates": [-99.14105415, 19.34400644]}, "stop_lon": -99.14105415, "geopoint": [19.34400644, -99.14105415], "agency_id": "METRO", "trip_heads": "Cuatro Caminos - Tasque\u00f1a", "stop_desc": "Metro 2", "stop_name": "Tasque\u00f1a", "stop_id": 14090.0}, "geometry": {"type": "Point", "coordinates": [-99.14105415, 19.34400644]}, "record_timestamp": "2019-01-16T17:08:31.562-06:00"},{"datasetid": "estaciones-metro", "recordid": "efd9cabe2ea65bd5af711814d5690a2abf438c7f", "fields": {"stop_lat": 19.40811392, "geometry": {"type": "Point", "coordinates": [-99.10283804, 19.40811392]}, "stop_lon": -99.10283804, "geopoint": [19.40811392, -99.10283804], "agency_id": "METRO", "trip_heads": "Tacubaya - Pantitl\u00e1n", "stop_desc": "Metro 9", "stop_name": "Vel\u00f3dromo", "stop_id": 14176.0}, "geometry": {"type": "Point", "coordinates": [-99.10283804, 19.40811392]}, "record_timestamp": "2019-01-16T17:08:31.562-06:00"},{"datasetid": "estaciones-metro", "recordid": "def29e276d721f68f1750fb48590a6454f801d86", "fields": {"stop_lat": 19.3950293, "geometry": {"type": "Point", "coordinates": [-99.13758874, 19.3950293]}, "stop_lon": -99.13758874, "geopoint": [19.3950293, -99.13758874], "agency_id": "METRO", "trip_heads": "Cuatro Caminos - Tasque\u00f1a", "stop_desc": "Metro 2", "stop_name": "Xola_1", "stop_id": 14057.0}, "geometry": {"type": "Point", "coordinates": [-99.13758874, 19.3950293]}, "record_timestamp": "2019-01-16T17:08:31.562-06:00"},{"datasetid": "estaciones-metro", "recordid": "93804caeff1c31e6b39ac0c0157ec3c673db3c94", "fields": {"stop_lat": 19.345135, "geometry": {"type": "Point", "coordinates": [-99.063367, 19.345135]}, "stop_lon": -99.063367, "geopoint": [19.345135, -99.063367], "agency_id": "METRO", "trip_heads": "Garibaldi - Constituci\u00f3n de 1917", "stop_desc": "Metro 8", "stop_name": "Constituci\u00f3n de 1917", "stop_id": 14202.0}, "geometry": {"type": "Point", "coordinates": [-99.063367, 19.345135]}, "record_timestamp": "2019-01-16T17:08:31.562-06:00"},{"datasetid": "estaciones-metro", "recordid": "e5eb475fc1852cbd919f557a4ded392d7c9ab965", "fields": {"stop_lat": 19.40404596, "geometry": {"type": "Point", "coordinates": [-99.06982541, 19.40404596]}, "stop_lon": -99.06982541, "geopoint": [19.40404596, -99.06982541], "agency_id": "METRO", "trip_heads": "La Paz - Pantitl\u00e1n", "stop_desc": "Metro A", "stop_name": "Agr\u00edcola Oriental", "stop_id": 14070.0}, "geometry": {"type": "Point", "coordinates": [-99.06982541, 19.40404596]}, "record_timestamp": "2019-01-16T17:08:31.562-06:00"},{"datasetid": "estaciones-metro", "recordid": "ee3f91e4f80a6f0762586241ebd51dbb5ab0940f", "fields": {"stop_lat": 19.36118453, "geometry": {"type": "Point", "coordinates": [-99.15133238, 19.36118453]}, "stop_lon": -99.15133238, "geopoint": [19.36118453, -99.15133238], "agency_id": "METRO", "trip_heads": "Tl\u00e1huac - Mixcoac", "stop_desc": "Metro 12", "stop_name": "Eje Central_1_3", "stop_id": 14239.0}, "geometry": {"type": "Point", "coordinates": [-99.15133238, 19.36118453]}, "record_timestamp": "2019-01-16T17:08:31.562-06:00"},{"datasetid": "estaciones-metro", "recordid": "565c18c1c454645eb86db0cb8b4170a89b60405d", "fields": {"stop_lat": 19.33597857, "geometry": {"type": "Point", "coordinates": [-99.17657733, 19.33597857]}, "stop_lon": -99.17657733, "geopoint": [19.33597857, -99.17657733], "agency_id": "METRO", "trip_heads": "Indios Verdes - Universidad", "stop_desc": "Metro 3", "stop_name": "Copilco", "stop_id": 14075.0}, "geometry": {"type": "Point", "coordinates": [-99.17657733, 19.33597857]}, "record_timestamp": "2019-01-16T17:08:31.562-06:00"},{"datasetid": "estaciones-metro", "recordid": "5e109e24bca5dca1e72d9df8ebbbb20b7118ac1b", "fields": {"stop_lat": 19.47415847, "geometry": {"type": "Point", "coordinates": [-99.10779476, 19.47415847]}, "stop_lon": -99.10779476, "geopoint": [19.47415847, -99.10779476], "agency_id": "METRO", "trip_heads": "Mart\u00edn Carrera - Santa Anita", "stop_desc": "Metro 4", "stop_name": "Talism\u00e1n_1_2", "stop_id": 14101.0}, "geometry": {"type": "Point", "coordinates": [-99.10779476, 19.47415847]}, "record_timestamp": "2019-01-16T17:08:31.562-06:00"},{"datasetid": "estaciones-metro", "recordid": "d5f4796204d6fb53e2456c807bfb67c784c10d46", "fields": {"stop_lat": 19.476413, "geometry": {"type": "Point", "coordinates": [-99.131748, 19.476413]}, "stop_lon": -99.131748, "geopoint": [19.476413, -99.131748], "agency_id": "METRO", "trip_heads": "Indios Verdes - Universidad", "stop_desc": "Metro 3", "stop_name": "Potrero_1_2", "stop_id": 14192.0}, "geometry": {"type": "Point", "coordinates": [-99.131748, 19.476413]}, "record_timestamp": "2019-01-16T17:08:31.562-06:00"},{"datasetid": "estaciones-metro", "recordid": "b8237b65c87545dd4cffe006c6b51134f38a4a05", "fields": {"stop_lat": 19.49054404, "geometry": {"type": "Point", "coordinates": [-99.14638638, 19.49054404]}, "stop_lon": -99.14638638, "geopoint": [19.49054404, -99.14638638], "agency_id": "METRO", "trip_heads": "Mart\u00edn Carrera - El Rosario", "stop_desc": "Metro L\u00ednea 6 correspondencia con l\u00ednea 5.", "stop_name": "Instituto del Petroleo", "stop_id": 42489.0}, "geometry": {"type": "Point", "coordinates": [-99.14638638, 19.49054404]}, "record_timestamp": "2019-01-16T17:08:31.562-06:00"},{"datasetid": "estaciones-metro", "recordid": "4a88c1cb05f2ecbb421b66f8b4fe0edbb4187bd4", "fields": {"stop_lat": 19.41369961, "geometry": {"type": "Point", "coordinates": [-99.1531992, 19.41369961]}, "stop_lon": -99.1531992, "geopoint": [19.41369961, -99.1531992], "agency_id": "METRO", "trip_heads": "Indios Verdes - Universidad", "stop_desc": "Metro 3", "stop_name": "Hospital General_1", "stop_id": 14152.0}, "geometry": {"type": "Point", "coordinates": [-99.1531992, 19.41369961]}, "record_timestamp": "2019-01-16T17:08:31.562-06:00"},{"datasetid": "estaciones-metro", "recordid": "fc31149f093080a22da0b9d732a9682cb0331d8e", "fields": {"stop_lat": 19.35319801, "geometry": {"type": "Point", "coordinates": [-99.14478779, 19.35319801]}, "stop_lon": -99.14478779, "geopoint": [19.35319801, -99.14478779], "agency_id": "METRO", "trip_heads": "Cuatro Caminos - Tasque\u00f1a", "stop_desc": "Metro 2", "stop_name": "General Anaya", "stop_id": 14089.0}, "geometry": {"type": "Point", "coordinates": [-99.14478779, 19.35319801]}, "record_timestamp": "2019-01-16T17:08:31.562-06:00"},{"datasetid": "estaciones-metro", "recordid": "4b7ef27aadd97c8d381f5cfd064cffe773e93fc9", "fields": {"stop_lat": 19.37192372, "geometry": {"type": "Point", "coordinates": [-99.17099833, 19.37192372]}, "stop_lon": -99.17099833, "geopoint": [19.37192372, -99.17099833], "agency_id": "METRO", "trip_heads": "Tl\u00e1huac - Mixcoac", "stop_desc": "Metro 12", "stop_name": "Hospital 20 de Nov.", "stop_id": 14241.0}, "geometry": {"type": "Point", "coordinates": [-99.17099833, 19.37192372]}, "record_timestamp": "2019-01-16T17:08:31.562-06:00"},{"datasetid": "estaciones-metro", "recordid": "0d45f41bbd6c637eec0332da53fa6acc5f2699b9", "fields": {"stop_lat": 19.41616858, "geometry": {"type": "Point", "coordinates": [-99.07434225, 19.41616858]}, "stop_lon": -99.07434225, "geopoint": [19.41616858, -99.07434225], "agency_id": "METRO", "trip_heads": "Observatorio - Pantitl\u00e1n", "stop_desc": "Metro L\u00ednea 1 correspondencia con l\u00edneas 5 9 y A.", "stop_name": "Pantitl\u00e1n_1_2", "stop_id": 14216.0}, "geometry": {"type": "Point", "coordinates": [-99.07434225, 19.41616858]}, "record_timestamp": "2019-01-16T17:08:31.562-06:00"},{"datasetid": "estaciones-metro", "recordid": "2e3e30a47daad7f8da79f46e13e6fbfbf9b8db66", "fields": {"stop_lat": 19.37938304, "geometry": {"type": "Point", "coordinates": [-99.13987398, 19.37938304]}, "stop_lon": -99.13987398, "geopoint": [19.37938304, -99.13987398], "agency_id": "METRO", "trip_heads": "Cuatro Caminos - Tasque\u00f1a", "stop_desc": "Metro 2", "stop_name": "Nativitas", "stop_id": 14093.0}, "geometry": {"type": "Point", "coordinates": [-99.13987398, 19.37938304]}, "record_timestamp": "2019-01-16T17:08:31.562-06:00"},{"datasetid": "estaciones-metro", "recordid": "ace92d73b2a68912c1beca7de85d5c3acf323efe", "fields": {"stop_lat": 19.45868169, "geometry": {"type": "Point", "coordinates": [-99.11988616, 19.45868169]}, "stop_lon": -99.11988616, "geopoint": [19.45868169, -99.11988616], "agency_id": "METRO", "trip_heads": "Pantitl\u00e1n - Polit\u00e9cnico", "stop_desc": "Metro 5", "stop_name": "Valle G\u00f3mez", "stop_id": 14140.0}, "geometry": {"type": "Point", "coordinates": [-99.11988616, 19.45868169]}, "record_timestamp": "2019-01-16T17:08:31.562-06:00"},{"datasetid": "estaciones-metro", "recordid": "fb8bc055ec8c528866454b5a3add8815da02c17e", "fields": {"stop_lat": 19.34651696, "geometry": {"type": "Point", "coordinates": [-99.18053627, 19.34651696]}, "stop_lon": -99.18053627, "geopoint": [19.34651696, -99.18053627], "agency_id": "METRO", "trip_heads": "Indios Verdes - Universidad", "stop_desc": "Metro 3", "stop_name": "Miguel \u00c1ngel de Quevedo", "stop_id": 14082.0}, "geometry": {"type": "Point", "coordinates": [-99.18053627, 19.34651696]}, "record_timestamp": "2019-01-16T17:08:31.562-06:00"},{"datasetid": "estaciones-metro", "recordid": "75b5c8461b6f4640c9ddbcd394def523c52ed61c", "fields": {"stop_lat": 19.41946724, "geometry": {"type": "Point", "coordinates": [-99.15023804, 19.41946724]}, "stop_lon": -99.15023804, "geopoint": [19.41946724, -99.15023804], "agency_id": "METRO", "trip_heads": "Indios Verdes - Universidad", "stop_desc": "Metro 3", "stop_name": "Ni\u00f1os H\u00e9roes_1", "stop_id": 14151.0}, "geometry": {"type": "Point", "coordinates": [-99.15023804, 19.41946724]}, "record_timestamp": "2019-01-16T17:08:31.562-06:00"},{"datasetid": "estaciones-metro", "recordid": "215d2f8489ebc6e40404ad3ca39877e90b0cafb3", "fields": {"stop_lat": 19.44300109, "geometry": {"type": "Point", "coordinates": [-99.13107634, 19.44300109]}, "stop_lon": -99.13107634, "geopoint": [19.44300109, -99.13107634], "agency_id": "METRO", "trip_heads": "Buenavista - Ciudad Azteca", "stop_desc": "Metro B", "stop_name": "Lagunilla", "stop_id": 14171.0}, "geometry": {"type": "Point", "coordinates": [-99.13107634, 19.44300109]}, "record_timestamp": "2019-01-16T17:08:31.562-06:00"},{"datasetid": "estaciones-metro", "recordid": "076ed25c76492a3358305664c4177985f47691de", "fields": {"stop_lat": 19.35744944, "geometry": {"type": "Point", "coordinates": [-99.12191391, 19.35744944]}, "stop_lon": -99.12191391, "geopoint": [19.35744944, -99.12191391], "agency_id": "METRO", "trip_heads": "Tl\u00e1huac - Mixcoac", "stop_desc": "Metro 12", "stop_name": "Mexicaltzingo", "stop_id": 14238.0}, "geometry": {"type": "Point", "coordinates": [-99.12191391, 19.35744944]}, "record_timestamp": "2019-01-16T17:08:31.562-06:00"},{"datasetid": "estaciones-metro", "recordid": "c5885ff42bb5260c610c978d7e341f40b38c3553", "fields": {"stop_lat": 19.499964, "geometry": {"type": "Point", "coordinates": [-99.148806, 19.499964]}, "stop_lon": -99.148806, "geopoint": [19.499964, -99.148806], "agency_id": "METRO", "trip_heads": "Pantitl\u00e1n - Polit\u00e9cnico", "stop_desc": "Metro 5", "stop_name": "Polit\u00e9cnico", "stop_id": 14188.0}, "geometry": {"type": "Point", "coordinates": [-99.148806, 19.499964]}, "record_timestamp": "2019-01-16T17:08:31.562-06:00"},{"datasetid": "estaciones-metro", "recordid": "35ba465b5fc1a3ccf665dc9844c04519d91a9490", "fields": {"stop_lat": 19.44553033, "geometry": {"type": "Point", "coordinates": [-99.19160843, 19.44553033]}, "stop_lon": -99.19160843, "geopoint": [19.44553033, -99.19160843], "agency_id": "METRO", "trip_heads": "Barranca del Muerto - El Rosario", "stop_desc": "Metro 7", "stop_name": "San Joaqu\u00edn", "stop_id": 14113.0}, "geometry": {"type": "Point", "coordinates": [-99.19160843, 19.44553033]}, "record_timestamp": "2019-01-16T17:08:31.562-06:00"},{"datasetid": "estaciones-metro", "recordid": "189f223b81c54bc8eff55b9f14c255212554d8d0", "fields": {"stop_lat": 19.39072824, "geometry": {"type": "Point", "coordinates": [-99.04651165, 19.39072824]}, "stop_lon": -99.04651165, "geopoint": [19.39072824, -99.04651165], "agency_id": "METRO", "trip_heads": "La Paz - Pantitl\u00e1n", "stop_desc": "Metro A", "stop_name": "Tepalcates_1", "stop_id": 14200.0}, "geometry": {"type": "Point", "coordinates": [-99.04651165, 19.39072824]}, "record_timestamp": "2019-01-16T17:08:31.562-06:00"},{"datasetid": "estaciones-metro", "recordid": "2b735919c0970e01b2dcbf010a3bc1a2ec4523a2", "fields": {"stop_lat": 19.432602, "geometry": {"type": "Point", "coordinates": [-99.131879, 19.432602]}, "stop_lon": -99.131879, "geopoint": [19.432602, -99.131879], "agency_id": "METRO", "trip_heads": "Cuatro Caminos - Tasque\u00f1a", "stop_desc": "Metro 2", "stop_name": "Z\u00f3calo", "stop_id": 14136.0}, "geometry": {"type": "Point", "coordinates": [-99.131879, 19.432602]}, "record_timestamp": "2019-01-16T17:08:31.562-06:00"},{"datasetid": "estaciones-metro", "recordid": "0b6a98fd71e30182601ea9b40effa535aa9103ac", "fields": {"stop_lat": 19.489836060000002, "geometry": {"type": "Point", "coordinates": [-99.14455175, 19.489836060000002]}, "stop_lon": -99.14455175, "geopoint": [19.489836060000002, -99.14455175], "agency_id": "METRO", "trip_heads": "Pantitl\u00e1n - Polit\u00e9cnico", "stop_desc": "Metro L\u00ednea 6 correspondencia con l\u00ednea 5.", "stop_name": "Instituto del Petr\u00f3leo_1", "stop_id": 14194.0}, "geometry": {"type": "Point", "coordinates": [-99.14455175, 19.489836060000002]}, "record_timestamp": "2019-01-16T17:08:31.562-06:00"},{"datasetid": "estaciones-metro", "recordid": "64493eb8d0a9ec1309230e7536c02df819873a74", "fields": {"stop_lat": 19.43674867, "geometry": {"type": "Point", "coordinates": [-99.14681554, 19.43674867]}, "stop_lon": -99.14681554, "geopoint": [19.43674867, -99.14681554], "agency_id": "METRO", "trip_heads": "Indios Verdes - Universidad", "stop_desc": "Metro L\u00ednea 3 correspondencia con l\u00ednea 2.", "stop_name": "Hidalgo_1_3", "stop_id": 14168.0}, "geometry": {"type": "Point", "coordinates": [-99.14681554, 19.43674867]}, "record_timestamp": "2019-01-16T17:08:31.562-06:00"},{"datasetid": "estaciones-metro", "recordid": "edf342cd6070ea4813193f4d7c836a56978186d3", "fields": {"stop_lat": 19.388092, "geometry": {"type": "Point", "coordinates": [-99.112086, 19.388092]}, "stop_lon": -99.112086, "geopoint": [19.388092, -99.112086], "agency_id": "METRO", "trip_heads": "Garibaldi - Constituci\u00f3n de 1917", "stop_desc": "Metro 8", "stop_name": "Iztacalco_1", "stop_id": 14094.0}, "geometry": {"type": "Point", "coordinates": [-99.112086, 19.388092]}, "record_timestamp": "2019-01-16T17:08:31.562-06:00"},{"datasetid": "estaciones-metro", "recordid": "9c9a83828f16fcaa1cbb0b776422aeea3fb03d5f", "fields": {"stop_lat": 19.484987, "geometry": {"type": "Point", "coordinates": [-99.048743, 19.484987]}, "stop_lon": -99.048743, "geopoint": [19.484987, -99.048743], "agency_id": "METRO", "trip_heads": "Buenavista - Ciudad Azteca", "stop_desc": "Metro B", "stop_name": "Impulsora", "stop_id": 14223.0}, "geometry": {"type": "Point", "coordinates": [-99.048743, 19.484987]}, "record_timestamp": "2019-01-16T17:08:31.562-06:00"},{"datasetid": "estaciones-metro", "recordid": "ac016921dca9163898efeadaa31cc621f16a4d8d", "fields": {"stop_lat": 19.42909974, "geometry": {"type": "Point", "coordinates": [-99.11989689, 19.42909974]}, "stop_lon": -99.11989689, "geopoint": [19.42909974, -99.11989689], "agency_id": "METRO", "trip_heads": "Observatorio - Pantitl\u00e1n", "stop_desc": "Metro L\u00ednea 1 correspondencia con l\u00ednea 4.", "stop_name": "Candelaria", "stop_id": 14134.0}, "geometry": {"type": "Point", "coordinates": [-99.11989689, 19.42909974]}, "record_timestamp": "2019-01-16T17:08:31.562-06:00"},{"datasetid": "estaciones-metro", "recordid": "e0c7097c1358b7c8bfb35018dc6cb7cad11a6b23", "fields": {"stop_lat": 19.3614882, "geometry": {"type": "Point", "coordinates": [-99.18895841, 19.3614882]}, "stop_lon": -99.18895841, "geopoint": [19.3614882, -99.18895841], "agency_id": "METRO", "trip_heads": "Barranca del Muerto - El Rosario", "stop_desc": "Metro 7", "stop_name": "Barranca del Muerto", "stop_id": 14080.0}, "geometry": {"type": "Point", "coordinates": [-99.18895841, 19.3614882]}, "record_timestamp": "2019-01-16T17:08:31.562-06:00"},{"datasetid": "estaciones-metro", "recordid": "99504a89fc9d07a5071739ee174759a60882d8ef", "fields": {"stop_lat": 19.4840507, "geometry": {"type": "Point", "coordinates": [-99.12543297, 19.4840507]}, "stop_lon": -99.12543297, "geopoint": [19.4840507, -99.12543297], "agency_id": "METRO", "trip_heads": "Indios Verdes - Universidad", "stop_desc": "Metro L\u00ednea 3 correspondencia con l\u00ednea 6.", "stop_name": "Deportivo 18 de Marzo_1_3", "stop_id": 14187.0}, "geometry": {"type": "Point", "coordinates": [-99.12543297, 19.4840507]}, "record_timestamp": "2019-01-16T17:08:31.562-06:00"},{"datasetid": "estaciones-metro", "recordid": "0da370cdc5c8ba275848e5a342f618ced388bb7e", "fields": {"stop_lat": 19.40891333, "geometry": {"type": "Point", "coordinates": [-99.13542151, 19.40891333]}, "stop_lon": -99.13542151, "geopoint": [19.40891333, -99.13542151], "agency_id": "METRO", "trip_heads": "Cuatro Caminos - Tasque\u00f1a", "stop_desc": "Metro L\u00ednea 2 correspondencia con l\u00ednea 8 y l\u00ednea 9.", "stop_name": "Chabacano_1_2", "stop_id": 14159.0}, "geometry": {"type": "Point", "coordinates": [-99.13542151, 19.40891333]}, "record_timestamp": "2019-01-16T17:08:31.562-06:00"},{"datasetid": "estaciones-metro", "recordid": "bee21c0ff0c6dabae72394428c3cba03aafe5313", "fields": {"stop_lat": 19.455485, "geometry": {"type": "Point", "coordinates": [-99.11348104, 19.455485]}, "stop_lon": -99.11348104, "geopoint": [19.455485, -99.11348104], "agency_id": "METRO", "trip_heads": "Pantitl\u00e1n - Polit\u00e9cnico", "stop_desc": "Metro L\u00ednea 5 correspondencia con l\u00ednea 4.", "stop_name": "Consulado_1", "stop_id": 15154.0}, "geometry": {"type": "Point", "coordinates": [-99.11348104, 19.455485]}, "record_timestamp": "2019-01-16T17:08:31.562-06:00"},{"datasetid": "estaciones-metro", "recordid": "380a99998d91f65ce334e1634295e607a31b4255", "fields": {"stop_lat": 19.45807473, "geometry": {"type": "Point", "coordinates": [-99.06927824, 19.45807473]}, "stop_lon": -99.06927824, "geopoint": [19.45807473, -99.06927824], "agency_id": "METRO", "trip_heads": "Buenavista - Ciudad Azteca", "stop_desc": "Metro B", "stop_name": "Bosque de Arag\u00f3n", "stop_id": 14219.0}, "geometry": {"type": "Point", "coordinates": [-99.06927824, 19.45807473]}, "record_timestamp": "2019-01-16T17:08:31.562-06:00"},{"datasetid": "estaciones-metro", "recordid": "6dacb0a732fa48b131602036f96401308638ec47", "fields": {"stop_lat": 19.43547387, "geometry": {"type": "Point", "coordinates": [-99.13670897, 19.43547387]}, "stop_lon": -99.13670897, "geopoint": [19.43547387, -99.13670897], "agency_id": "METRO", "trip_heads": "Cuatro Caminos - Tasque\u00f1a", "stop_desc": "Metro 2", "stop_name": "Allende", "stop_id": 14163.0}, "geometry": {"type": "Point", "coordinates": [-99.13670897, 19.43547387]}, "record_timestamp": "2019-01-16T17:08:31.562-06:00"},{"datasetid": "estaciones-metro", "recordid": "7a84122c128d5753c2356d8f57c3c67deed9937b", "fields": {"stop_lat": 19.42595305, "geometry": {"type": "Point", "coordinates": [-99.13268566, 19.42595305]}, "stop_lon": -99.13268566, "geopoint": [19.42595305, -99.13268566], "agency_id": "METRO", "trip_heads": "Observatorio - Pantitl\u00e1n", "stop_desc": "Metro L\u00ednea 1 correspondencia con l\u00ednea 2.", "stop_name": "Pino Su\u00e1rez_1_2", "stop_id": 14161.0}, "geometry": {"type": "Point", "coordinates": [-99.13268566, 19.42595305]}, "record_timestamp": "2019-01-16T17:08:31.562-06:00"},{"datasetid": "estaciones-metro", "recordid": "d89973b75529a3b04d1b5beca7ad8a0ce8963fc6", "fields": {"stop_lat": 19.38746949, "geometry": {"type": "Point", "coordinates": [-99.13862944, 19.38746949]}, "stop_lon": -99.13862944, "geopoint": [19.38746949, -99.13862944], "agency_id": "METRO", "trip_heads": "Cuatro Caminos - Tasque\u00f1a", "stop_desc": "Metro 2", "stop_name": "Villa de Cort\u00e9s", "stop_id": 14092.0}, "geometry": {"type": "Point", "coordinates": [-99.13862944, 19.38746949]}, "record_timestamp": "2019-01-16T17:08:31.562-06:00"},{"datasetid": "estaciones-metro", "recordid": "be810f45362286d10556bbeec6c0232556d7aa83", "fields": {"stop_lat": 19.400746990000002, "geometry": {"type": "Point", "coordinates": [-99.13663387, 19.400746990000002]}, "stop_lon": -99.13663387, "geopoint": [19.400746990000002, -99.13663387], "agency_id": "METRO", "trip_heads": "Cuatro Caminos - Tasque\u00f1a", "stop_desc": "Metro 2", "stop_name": "Viaducto_1", "stop_id": 14056.0}, "geometry": {"type": "Point", "coordinates": [-99.13663387, 19.400746990000002]}, "record_timestamp": "2019-01-16T17:08:31.562-06:00"},{"datasetid": "estaciones-metro", "recordid": "3bb22af7986e9faf006b9707eff691235d952ee5", "fields": {"stop_lat": 19.49031142, "geometry": {"type": "Point", "coordinates": [-99.15479779, 19.49031142]}, "stop_lon": -99.15479779, "geopoint": [19.49031142, -99.15479779], "agency_id": "METRO", "trip_heads": "Mart\u00edn Carrera - El Rosario", "stop_desc": "Metro 6", "stop_name": "Vallejo", "stop_id": 14106.0}, "geometry": {"type": "Point", "coordinates": [-99.15479779, 19.49031142]}, "record_timestamp": "2019-01-16T17:08:31.562-06:00"},{"datasetid": "estaciones-metro", "recordid": "d7acfa695cfb60f18af0e5c590dc0debbb695128", "fields": {"stop_lat": 19.43973327, "geometry": {"type": "Point", "coordinates": [-99.11790133, 19.43973327]}, "stop_lon": -99.11790133, "geopoint": [19.43973327, -99.11790133], "agency_id": "METRO", "trip_heads": "Mart\u00edn Carrera - Santa Anita", "stop_desc": "Metro L\u00ednea 4 correspondencia con l\u00ednea B.", "stop_name": "Morelos_1_3", "stop_id": 14182.0}, "geometry": {"type": "Point", "coordinates": [-99.11790133, 19.43973327]}, "record_timestamp": "2019-01-16T17:08:31.562-06:00"},{"datasetid": "estaciones-metro", "recordid": "2665d5b940cf61c9a014fcbd9865f51b508cc513", "fields": {"stop_lat": 19.41014786, "geometry": {"type": "Point", "coordinates": [-99.12203193, 19.41014786]}, "stop_lon": -99.12203193, "geopoint": [19.41014786, -99.12203193], "agency_id": "METRO", "trip_heads": "Mart\u00edn Carrera - Santa Anita", "stop_desc": "Metro L\u00ednea 4 correspondencia con l\u00ednea 9.", "stop_name": "Jamaica_1", "stop_id": 14175.0}, "geometry": {"type": "Point", "coordinates": [-99.12203193, 19.41014786]}, "record_timestamp": "2019-01-16T17:08:31.562-06:00"},{"datasetid": "estaciones-metro", "recordid": "19e9d197aa94fac29b404f61187c2811a64c9b7c", "fields": {"stop_lat": 19.44522682, "geometry": {"type": "Point", "coordinates": [-99.1463542, 19.44522682]}, "stop_lon": -99.1463542, "geopoint": [19.44522682, -99.1463542], "agency_id": "METRO", "trip_heads": "Buenavista - Ciudad Azteca", "stop_desc": "Metro L\u00ednea B correspondencia con l\u00ednea 3.", "stop_name": "Guerrero_1_4", "stop_id": 14166.0}, "geometry": {"type": "Point", "coordinates": [-99.1463542, 19.44522682]}, "record_timestamp": "2019-01-16T17:08:31.562-06:00"},{"datasetid": "estaciones-metro", "recordid": "b973a708a397a8612f2493c7e9ba5493366cde08", "fields": {"stop_lat": 19.44572255, "geometry": {"type": "Point", "coordinates": [-99.08683062, 19.44572255]}, "stop_lon": -99.08683062, "geopoint": [19.44572255, -99.08683062], "agency_id": "METRO", "trip_heads": "Buenavista - Ciudad Azteca", "stop_desc": "Metro L\u00ednea B correspondencia con l\u00ednea 5.", "stop_name": "Ocean\u00eda_1", "stop_id": 14072.0}, "geometry": {"type": "Point", "coordinates": [-99.08683062, 19.44572255]}, "record_timestamp": "2019-01-16T17:08:31.562-06:00"},{"datasetid": "estaciones-metro", "recordid": "694c99e92519e6de3c0906e833f76be4d4f0fca1", "fields": {"stop_lat": 19.42049932, "geometry": {"type": "Point", "coordinates": [-99.14335012, 19.42049932]}, "stop_lon": -99.14335012, "geopoint": [19.42049932, -99.14335012], "agency_id": "METRO", "trip_heads": "Garibaldi - Constituci\u00f3n de 1917", "stop_desc": "Metro 8", "stop_name": "Doctores", "stop_id": 14153.0}, "geometry": {"type": "Point", "coordinates": [-99.14335012, 19.42049932]}, "record_timestamp": "2019-01-16T17:08:31.562-06:00"},{"datasetid": "estaciones-metro", "recordid": "f9a91fc6493a477f2632acadb66fdab95156df70", "fields": {"stop_lat": 19.40820499, "geometry": {"type": "Point", "coordinates": [-99.11285877, 19.40820499]}, "stop_lon": -99.11285877, "geopoint": [19.40820499, -99.11285877], "agency_id": "METRO", "trip_heads": "Tacubaya - Pantitl\u00e1n", "stop_desc": "Metro 9", "stop_name": "Mixhuca", "stop_id": 14177.0}, "geometry": {"type": "Point", "coordinates": [-99.11285877, 19.40820499]}, "record_timestamp": "2019-01-16T17:08:31.562-06:00"},{"datasetid": "estaciones-metro", "recordid": "b495c1338209b0aa6fb7d739790443560c334aea", "fields": {"stop_lat": 19.35877546, "geometry": {"type": "Point", "coordinates": [-98.97670984, 19.35877546]}, "stop_lon": -98.97670984, "geopoint": [19.35877546, -98.97670984], "agency_id": "METRO", "trip_heads": "La Paz - Pantitl\u00e1n", "stop_desc": "Metro A", "stop_name": "Los Reyes", "stop_id": 14206.0}, "geometry": {"type": "Point", "coordinates": [-98.97670984, 19.35877546]}, "record_timestamp": "2019-01-16T17:08:31.562-06:00"},{"datasetid": "estaciones-metro", "recordid": "6a85328f88ac80e23ff8f48f7ff65f8a945459ad", "fields": {"stop_lat": 19.3705472, "geometry": {"type": "Point", "coordinates": [-99.16540861, 19.3705472]}, "stop_lon": -99.16540861, "geopoint": [19.3705472, -99.16540861], "agency_id": "METRO", "trip_heads": "Tl\u00e1huac - Mixcoac", "stop_desc": "Metro L\u00ednea 12 correspondencia con l\u00ednea 3.", "stop_name": "Zapata_1", "stop_id": 42432.0}, "geometry": {"type": "Point", "coordinates": [-99.16540861, 19.3705472]}, "record_timestamp": "2019-01-16T17:08:31.562-06:00"},{"datasetid": "estaciones-metro", "recordid": "ed983ae92d6cc58e5a82ee5b784322ac81616e85", "fields": {"stop_lat": 19.40749665, "geometry": {"type": "Point", "coordinates": [-99.15531278, 19.40749665]}, "stop_lon": -99.15531278, "geopoint": [19.40749665, -99.15531278], "agency_id": "METRO", "trip_heads": "Indios Verdes - Universidad", "stop_desc": "Metro L\u00ednea 3 correspondencia con l\u00ednea 9.", "stop_name": "Centro M\u00e9dico_1", "stop_id": 14058.0}, "geometry": {"type": "Point", "coordinates": [-99.15531278, 19.40749665]}, "record_timestamp": "2019-01-16T17:08:31.562-06:00"},{"datasetid": "estaciones-metro", "recordid": "488460ae8dced49ef97d939bb2a2c1d8ea307c96", "fields": {"stop_lat": 19.355601, "geometry": {"type": "Point", "coordinates": [-99.085872, 19.355601]}, "stop_lon": -99.085872, "geopoint": [19.355601, -99.085872], "agency_id": "METRO", "trip_heads": "Garibaldi - Constituci\u00f3n de 1917", "stop_desc": "Metro 8", "stop_name": "Cerro de la Estrella", "stop_id": 14203.0}, "geometry": {"type": "Point", "coordinates": [-99.085872, 19.355601]}, "record_timestamp": "2019-01-16T17:08:31.562-06:00"},{"datasetid": "estaciones-metro", "recordid": "2dca08f55dc201b420852e8c74052023676dd309", "fields": {"stop_lat": 19.46450842, "geometry": {"type": "Point", "coordinates": [-99.1117537, 19.46450842]}, "stop_lon": -99.1117537, "geopoint": [19.46450842, -99.1117537], "agency_id": "METRO", "trip_heads": "Mart\u00edn Carrera - Santa Anita", "stop_desc": "Metro 4", "stop_name": "Bondojito_1", "stop_id": 14102.0}, "geometry": {"type": "Point", "coordinates": [-99.1117537, 19.46450842]}, "record_timestamp": "2019-01-16T17:08:31.562-06:00"},{"datasetid": "estaciones-metro", "recordid": "dbcd60778135917d3b4bbcec06f3f6dbd82eaeac", "fields": {"stop_lat": 19.39821706, "geometry": {"type": "Point", "coordinates": [-99.05969739, 19.39821706]}, "stop_lon": -99.05969739, "geopoint": [19.39821706, -99.05969739], "agency_id": "METRO", "trip_heads": "La Paz - Pantitl\u00e1n", "stop_desc": "Metro A", "stop_name": "Canal de San Juan_1_3", "stop_id": 14071.0}, "geometry": {"type": "Point", "coordinates": [-99.05969739, 19.39821706]}, "record_timestamp": "2019-01-16T17:08:31.562-06:00"},{"datasetid": "estaciones-metro", "recordid": "df8a80b67756d3873e69f90d6f6d53895c7a1837", "fields": {"stop_lat": 19.41528826, "geometry": {"type": "Point", "coordinates": [-99.07505035, 19.41528826]}, "stop_lon": -99.07505035, "geopoint": [19.41528826, -99.07505035], "agency_id": "METRO", "trip_heads": "Pantitl\u00e1n - Polit\u00e9cnico", "stop_desc": "Metro L\u00ednea 5 correspondencia con l\u00edneas 1 9 y A.", "stop_name": "Pantitl\u00e1n", "stop_id": 14214.0}, "geometry": {"type": "Point", "coordinates": [-99.07505035, 19.41528826]}, "record_timestamp": "2019-01-16T17:08:31.562-06:00"},{"datasetid": "estaciones-metro", "recordid": "194887fc9bef5c920150629456c83d75dd2e323e", "fields": {"stop_lat": 19.3272315, "geometry": {"type": "Point", "coordinates": [-99.10259128, 19.3272315]}, "stop_lon": -99.10259128, "geopoint": [19.3272315, -99.10259128], "agency_id": "METRO", "trip_heads": "Tl\u00e1huac - Mixcoac", "stop_desc": "Metro 12", "stop_name": "San Andr\u00e9s Tomatl\u00e1n", "stop_id": 14236.0}, "geometry": {"type": "Point", "coordinates": [-99.10259128, 19.3272315]}, "record_timestamp": "2019-01-16T17:08:31.562-06:00"},{"datasetid": "estaciones-metro", "recordid": "92f3e99a1112d45ccb385ebf3815f20aca9c4e1b", "fields": {"stop_lat": 19.408513, "geometry": {"type": "Point", "coordinates": [-99.135489, 19.408513]}, "stop_lon": -99.135489, "geopoint": [19.408513, -99.135489], "agency_id": "METRO", "trip_heads": "Tacubaya - Pantitl\u00e1n", "stop_desc": "Metro L\u00ednea 9 correspondencia con l\u00ednea 2 y l\u00ednea 8.", "stop_name": "Chabacano", "stop_id": 14145.0}, "geometry": {"type": "Point", "coordinates": [-99.135489, 19.408513]}, "record_timestamp": "2019-01-16T17:08:31.562-06:00"},{"datasetid": "estaciones-metro", "recordid": "4da2089ea5e7cf6a8f84dae1d048937fd7e229df", "fields": {"stop_lat": 19.45112485, "geometry": {"type": "Point", "coordinates": [-99.10544515, 19.45112485]}, "stop_lon": -99.10544515, "geopoint": [19.45112485, -99.10544515], "agency_id": "METRO", "trip_heads": "Pantitl\u00e1n - Polit\u00e9cnico", "stop_desc": "Metro 5", "stop_name": "Eduardo Molina_1", "stop_id": 14184.0}, "geometry": {"type": "Point", "coordinates": [-99.10544515, 19.45112485]}, "record_timestamp": "2019-01-16T17:08:31.562-06:00"},{"datasetid": "estaciones-metro", "recordid": "738d0fca6e09b9716fe28ed56ce1341bd729c8e7", "fields": {"stop_lat": 19.40811392, "geometry": {"type": "Point", "coordinates": [-99.09135818, 19.40811392]}, "stop_lon": -99.09135818, "geopoint": [19.40811392, -99.09135818], "agency_id": "METRO", "trip_heads": "Tacubaya - Pantitl\u00e1n", "stop_desc": "Metro 9", "stop_name": "Ciudad Deportiva", "stop_id": 14069.0}, "geometry": {"type": "Point", "coordinates": [-99.09135818, 19.40811392]}, "record_timestamp": "2019-01-16T17:08:31.562-06:00"},{"datasetid": "estaciones-metro", "recordid": "122c15d077b38f957eb2c75f3105e6dc13be3303", "fields": {"stop_lat": 19.458454, "geometry": {"type": "Point", "coordinates": [-99.214643, 19.458454]}, "stop_lon": -99.214643, "geopoint": [19.458454, -99.214643], "agency_id": "METRO", "trip_heads": "Cuatro Caminos - Tasque\u00f1a", "stop_desc": "Metro 2", "stop_name": "Cuatro Caminos", "stop_id": 14117.0}, "geometry": {"type": "Point", "coordinates": [-99.214643, 19.458454]}, "record_timestamp": "2019-01-16T17:08:31.562-06:00"},{"datasetid": "estaciones-metro", "recordid": "f06a3e6a2ea19fb099950f1ff01f204d3e9221f2", "fields": {"stop_lat": 19.38459525, "geometry": {"type": "Point", "coordinates": [-99.03579354, 19.38459525]}, "stop_lon": -99.03579354, "geopoint": [19.38459525, -99.03579354], "agency_id": "METRO", "trip_heads": "La Paz - Pantitl\u00e1n", "stop_desc": "Metro A", "stop_name": "Guelatao", "stop_id": 14198.0}, "geometry": {"type": "Point", "coordinates": [-99.03579354, 19.38459525]}, "record_timestamp": "2019-01-16T17:08:31.562-06:00"},{"datasetid": "estaciones-metro", "recordid": "114fa000f0a03f3d96920ebb94784f37d85ec261", "fields": {"stop_lat": 19.4837675, "geometry": {"type": "Point", "coordinates": [-99.10599232, 19.4837675]}, "stop_lon": -99.10599232, "geopoint": [19.4837675, -99.10599232], "agency_id": "METRO", "trip_heads": "Mart\u00edn Carrera - Santa Anita", "stop_desc": "Metro L\u00ednea 4 correspondencia con l\u00ednea 6.", "stop_name": "Mart\u00edn Carrera_1", "stop_id": 14196.0}, "geometry": {"type": "Point", "coordinates": [-99.10599232, 19.4837675]}, "record_timestamp": "2019-01-16T17:08:31.562-06:00"},{"datasetid": "estaciones-metro", "recordid": "afb1e3edebec48969d5f3b3577ea181c7a73c766", "fields": {"stop_lat": 19.438426, "geometry": {"type": "Point", "coordinates": [-99.11933, 19.438426]}, "stop_lon": -99.11933, "geopoint": [19.438426, -99.11933], "agency_id": "METRO", "trip_heads": "Buenavista - Ciudad Azteca", "stop_desc": "Metro L\u00ednea B correspondencia con l\u00ednea 4.", "stop_name": "Morelos_1_2", "stop_id": 14051.0}, "geometry": {"type": "Point", "coordinates": [-99.11933, 19.438426]}, "record_timestamp": "2019-01-16T17:08:31.562-06:00"},{"datasetid": "estaciones-metro", "recordid": "98e8b141257d0ddd43c6e4500ae8b7d074838a64", "fields": {"stop_lat": 19.42359552, "geometry": {"type": "Point", "coordinates": [-99.16325212, 19.42359552]}, "stop_lon": -99.16325212, "geopoint": [19.42359552, -99.16325212], "agency_id": "METRO", "trip_heads": "Observatorio - Pantitl\u00e1n", "stop_desc": "Metro 1", "stop_name": "Insurgentes_1_5", "stop_id": 14097.0}, "geometry": {"type": "Point", "coordinates": [-99.16325212, 19.42359552]}, "record_timestamp": "2019-01-16T17:08:31.562-06:00"},{"datasetid": "estaciones-metro", "recordid": "4d4a81fe7d0e9c1991b4794066d257fe7feaa52e", "fields": {"stop_lat": 19.4875806, "geometry": {"type": "Point", "coordinates": [-99.13434863, 19.4875806]}, "stop_lon": -99.13434863, "geopoint": [19.4875806, -99.13434863], "agency_id": "METRO", "trip_heads": "Mart\u00edn Carrera - El Rosario", "stop_desc": "Metro 6", "stop_name": "Lindavista", "stop_id": 14195.0}, "geometry": {"type": "Point", "coordinates": [-99.13434863, 19.4875806]}, "record_timestamp": "2019-01-16T17:08:31.562-06:00"},{"datasetid": "estaciones-metro", "recordid": "241aecba5fc7953a56b1bd283be9a842cb4a5120", "fields": {"stop_lat": 19.472534, "geometry": {"type": "Point", "coordinates": [-99.054375, 19.472534]}, "stop_lon": -99.054375, "geopoint": [19.472534, -99.054375], "agency_id": "METRO", "trip_heads": "Buenavista - Ciudad Azteca", "stop_desc": "Metro B", "stop_name": "Nezahualc\u00f3yotl", "stop_id": 14210.0}, "geometry": {"type": "Point", "coordinates": [-99.054375, 19.472534]}, "record_timestamp": "2019-01-16T17:08:31.562-06:00"},{"datasetid": "estaciones-metro", "recordid": "051f09aba31376ed896b1079a990ca18941ebc7c", "fields": {"stop_lat": 19.426271, "geometry": {"type": "Point", "coordinates": [-99.109803, 19.426271]}, "stop_lon": -99.109803, "geopoint": [19.426271, -99.109803], "agency_id": "METRO", "trip_heads": "Observatorio - Pantitl\u00e1n", "stop_desc": "Metro 1", "stop_name": "Moctezuma_1", "stop_id": 14173.0}, "geometry": {"type": "Point", "coordinates": [-99.109803, 19.426271]}, "record_timestamp": "2019-01-16T17:08:31.562-06:00"},{"datasetid": "estaciones-metro", "recordid": "6b48f08124e9fadb35e1cc1802207f6b6b60fd68", "fields": {"stop_lat": 19.43595951, "geometry": {"type": "Point", "coordinates": [-99.14155841, 19.43595951]}, "stop_lon": -99.14155841, "geopoint": [19.43595951, -99.14155841], "agency_id": "METRO", "trip_heads": "Cuatro Caminos - Tasque\u00f1a", "stop_desc": "Metro L\u00ednea 2 correspondencia con l\u00ednea 8.", "stop_name": "Bellas Artes_1_2", "stop_id": 14162.0}, "geometry": {"type": "Point", "coordinates": [-99.14155841, 19.43595951]}, "record_timestamp": "2019-01-16T17:08:31.562-06:00"},{"datasetid": "estaciones-metro", "recordid": "3422f142ea7ea45cc2a9ef48c5c2a075b7f415a3", "fields": {"stop_lat": 19.44866652, "geometry": {"type": "Point", "coordinates": [-99.11589503, 19.44866652]}, "stop_lon": -99.11589503, "geopoint": [19.44866652, -99.11589503], "agency_id": "METRO", "trip_heads": "Mart\u00edn Carrera - Santa Anita", "stop_desc": "Metro 4", "stop_name": "Canal del Norte_1", "stop_id": 14181.0}, "geometry": {"type": "Point", "coordinates": [-99.11589503, 19.44866652]}, "record_timestamp": "2019-01-16T17:08:31.562-06:00"},{"datasetid": "estaciones-metro", "recordid": "3b721f59ac9fc9f5ffe0275aa4eb1f7a88a0afa3", "fields": {"stop_lat": 19.44615757, "geometry": {"type": "Point", "coordinates": [-99.15289879, 19.44615757]}, "stop_lon": -99.15289879, "geopoint": [19.44615757, -99.15289879], "agency_id": "METRO", "trip_heads": "Buenavista - Ciudad Azteca", "stop_desc": "Metro B", "stop_name": "Buenavista_1_4", "stop_id": 14170.0}, "geometry": {"type": "Point", "coordinates": [-99.15289879, 19.44615757]}, "record_timestamp": "2019-01-16T17:08:31.562-06:00"},{"datasetid": "estaciones-metro", "recordid": "3bf09a7b54920c1cf5725ab534db52f891ef949f", "fields": {"stop_lat": 19.48231101, "geometry": {"type": "Point", "coordinates": [-99.10554171, 19.48231101]}, "stop_lon": -99.10554171, "geopoint": [19.48231101, -99.10554171], "agency_id": "METRO", "trip_heads": "Mart\u00edn Carrera - El Rosario", "stop_desc": "Metro L\u00ednea 6 correspondencia con l\u00ednea 4.", "stop_name": "Mart\u00edn Carrera_1_2", "stop_id": 14197.0}, "geometry": {"type": "Point", "coordinates": [-99.10554171, 19.48231101]}, "record_timestamp": "2019-01-16T17:08:31.562-06:00"},{"datasetid": "estaciones-metro", "recordid": "d98b3c195abad44905e920e5810cacae1306d2d9", "fields": {"stop_lat": 19.4146103, "geometry": {"type": "Point", "coordinates": [-99.07262564, 19.4146103]}, "stop_lon": -99.07262564, "geopoint": [19.4146103, -99.07262564], "agency_id": "METRO", "trip_heads": "La Paz - Pantitl\u00e1n", "stop_desc": "Metro L\u00ednea A correspondencia con l\u00edneas 1 5 y 9.", "stop_name": "Pantitl\u00e1n_1", "stop_id": 14215.0}, "geometry": {"type": "Point", "coordinates": [-99.07262564, 19.4146103]}, "record_timestamp": "2019-01-16T17:08:31.562-06:00"},{"datasetid": "estaciones-metro", "recordid": "299dfc426a3be1474fc501d3afe5f89cb1db7578", "fields": {"stop_lat": 19.36976784, "geometry": {"type": "Point", "coordinates": [-99.14130092, 19.36976784]}, "stop_lon": -99.14130092, "geopoint": [19.36976784, -99.14130092], "agency_id": "METRO", "trip_heads": "Cuatro Caminos - Tasque\u00f1a", "stop_desc": "Metro 2", "stop_name": "Portales", "stop_id": 14085.0}, "geometry": {"type": "Point", "coordinates": [-99.14130092, 19.36976784]}, "record_timestamp": "2019-01-16T17:08:31.562-06:00"},{"datasetid": "estaciones-metro", "recordid": "fdcb82f62d9c94455558a6639196bdc31f555f49", "fields": {"stop_lat": 19.50096117, "geometry": {"type": "Point", "coordinates": [-99.04171586, 19.50096117]}, "stop_lon": -99.04171586, "geopoint": [19.50096117, -99.04171586], "agency_id": "METRO", "trip_heads": "Buenavista - Ciudad Azteca", "stop_desc": "Metro B", "stop_name": "M\u00fazquiz", "stop_id": 14221.0}, "geometry": {"type": "Point", "coordinates": [-99.04171586, 19.50096117]}, "record_timestamp": "2019-01-16T17:08:31.562-06:00"},{"datasetid": "estaciones-metro", "recordid": "1a6056fc13ea57312023447cb1840d0befaafeb4", "fields": {"stop_lat": 19.29939771, "geometry": {"type": "Point", "coordinates": [-99.04621124, 19.29939771]}, "stop_lon": -99.04621124, "geopoint": [19.29939771, -99.04621124], "agency_id": "METRO", "trip_heads": "Tl\u00e1huac - Mixcoac", "stop_desc": "Metro 12", "stop_name": "Nopalera", "stop_id": 14230.0}, "geometry": {"type": "Point", "coordinates": [-99.04621124, 19.29939771]}, "record_timestamp": "2019-01-16T17:08:31.562-06:00"},{"datasetid": "estaciones-metro", "recordid": "4ef837f6c56dd206ca12fb21693bcb245288fc0b", "fields": {"stop_lat": 19.41129131, "geometry": {"type": "Point", "coordinates": [-99.19138312, 19.41129131]}, "stop_lon": -99.19138312, "geopoint": [19.41129131, -99.19138312], "agency_id": "METRO", "trip_heads": "Barranca del Muerto - El Rosario", "stop_desc": "Metro 7", "stop_name": "Constituyentes_1_2", "stop_id": 14116.0}, "geometry": {"type": "Point", "coordinates": [-99.19138312, 19.41129131]}, "record_timestamp": "2019-01-16T17:08:31.562-06:00"},{"datasetid": "estaciones-metro", "recordid": "e28276cfaf15f76a26a51351599b0e8028364254", "fields": {"stop_lat": 19.423251, "geometry": {"type": "Point", "coordinates": [-99.087095, 19.423251]}, "stop_lon": -99.087095, "geopoint": [19.423251, -99.087095], "agency_id": "METRO", "trip_heads": "Pantitl\u00e1n - Polit\u00e9cnico", "stop_desc": "Metro 5", "stop_name": "Hangares", "stop_id": 14213.0}, "geometry": {"type": "Point", "coordinates": [-99.087095, 19.423251]}, "record_timestamp": "2019-01-16T17:08:31.562-06:00"},{"datasetid": "estaciones-metro", "recordid": "5b56d2a5caeaa897f4651c21896ade812e241086", "fields": {"stop_lat": 19.40425847, "geometry": {"type": "Point", "coordinates": [-99.12120581, 19.40425847]}, "stop_lon": -99.12120581, "geopoint": [19.40425847, -99.12120581], "agency_id": "METRO", "trip_heads": "Mart\u00edn Carrera - Santa Anita", "stop_desc": "Metro L\u00ednea 4 correspondencia con l\u00edneas 8.", "stop_name": "Santa Anita_1", "stop_id": 14178.0}, "geometry": {"type": "Point", "coordinates": [-99.12120581, 19.40425847]}, "record_timestamp": "2019-01-16T17:08:31.562-06:00"},{"datasetid": "estaciones-metro", "recordid": "ffcd24095ade55a633c601b9e5a043079b6cf5bc", "fields": {"stop_lat": 19.49448847, "geometry": {"type": "Point", "coordinates": [-99.19593215, 19.49448847]}, "stop_lon": -99.19593215, "geopoint": [19.49448847, -99.19593215], "agency_id": "METRO", "trip_heads": "Mart\u00edn Carrera - El Rosario", "stop_desc": "Metro 6", "stop_name": "Tezoz\u00f3moc", "stop_id": 14128.0}, "geometry": {"type": "Point", "coordinates": [-99.19593215, 19.49448847]}, "record_timestamp": "2019-01-16T17:08:31.562-06:00"},{"datasetid": "estaciones-metro", "recordid": "335e1f8184bfa3d5503898f3413e540acd34a7e0", "fields": {"stop_lat": 19.48358544, "geometry": {"type": "Point", "coordinates": [-99.12576556, 19.48358544]}, "stop_lon": -99.12576556, "geopoint": [19.48358544, -99.12576556], "agency_id": "METRO", "trip_heads": "Mart\u00edn Carrera - El Rosario", "stop_desc": "Metro L\u00ednea 6 correspondencia con l\u00ednea 3.", "stop_name": "Deportivo 18 de Marzo_1_4", "stop_id": 14190.0}, "geometry": {"type": "Point", "coordinates": [-99.12576556, 19.48358544]}, "record_timestamp": "2019-01-16T17:08:31.562-06:00"},{"datasetid": "estaciones-metro", "recordid": "c611f84595d2297caa8a6308b597c2d10114b9f8", "fields": {"stop_lat": 19.35264126, "geometry": {"type": "Point", "coordinates": [-99.10632491, 19.35264126]}, "stop_lon": -99.10632491, "geopoint": [19.35264126, -99.10632491], "agency_id": "METRO", "trip_heads": "Tl\u00e1huac - Mixcoac", "stop_desc": "Metro L\u00ednea 12 correspondencia con l\u00ednea 8.", "stop_name": "Atlalilco_1", "stop_id": 42427.0}, "geometry": {"type": "Point", "coordinates": [-99.10632491, 19.35264126]}, "record_timestamp": "2019-01-16T17:08:31.562-06:00"},{"datasetid": "estaciones-metro", "recordid": "13df2a3de6af21f168c30b74ee17b1be72d00185", "fields": {"stop_lat": 19.33887391, "geometry": {"type": "Point", "coordinates": [-99.10894275, 19.33887391]}, "stop_lon": -99.10894275, "geopoint": [19.33887391, -99.10894275], "agency_id": "METRO", "trip_heads": "Tl\u00e1huac - Mixcoac", "stop_desc": "Metro 12", "stop_name": "Culhuac\u00e1n", "stop_id": 14237.0}, "geometry": {"type": "Point", "coordinates": [-99.10894275, 19.33887391]}, "record_timestamp": "2019-01-16T17:08:31.562-06:00"},{"datasetid": "estaciones-metro", "recordid": "46cd645d5c0591717c9595bd43d945fe082902c8", "fields": {"stop_lat": 19.40213338, "geometry": {"type": "Point", "coordinates": [-99.18823957, 19.40213338]}, "stop_lon": -99.18823957, "geopoint": [19.40213338, -99.18823957], "agency_id": "METRO", "trip_heads": "Observatorio - Pantitl\u00e1n", "stop_desc": "Metro L\u00ednea 1 correspondencia con l\u00ednea 7 y l\u00ednea 9.", "stop_name": "Tacubaya_1", "stop_id": 14054.0}, "geometry": {"type": "Point", "coordinates": [-99.18823957, 19.40213338]}, "record_timestamp": "2019-01-16T17:08:31.562-06:00"},{"datasetid": "estaciones-metro", "recordid": "7e873d6d95d3e330aa592c8d89d62b1dee70e773", "fields": {"stop_lat": 19.40397512, "geometry": {"type": "Point", "coordinates": [-99.12136674, 19.40397512]}, "stop_lon": -99.12136674, "geopoint": [19.40397512, -99.12136674], "agency_id": "METRO", "trip_heads": "Garibaldi - Constituci\u00f3n de 1917", "stop_desc": "Metro L\u00ednea 8 correspondencia con l\u00ednea 4.", "stop_name": "Santa Anita", "stop_id": 14064.0}, "geometry": {"type": "Point", "coordinates": [-99.12136674, 19.40397512]}, "record_timestamp": "2019-01-16T17:08:31.562-06:00"},{"datasetid": "estaciones-metro", "recordid": "f29f6ddb8c29bb500b39bc258285986061fc5aa1", "fields": {"stop_lat": 19.458383, "geometry": {"type": "Point", "coordinates": [-99.188501, 19.458383]}, "stop_lon": -99.188501, "geopoint": [19.458383, -99.188501], "agency_id": "METRO", "trip_heads": "Barranca del Muerto - El Rosario", "stop_desc": "Metro L\u00ednea 7 correspondencia con l\u00ednea 2.", "stop_name": "Tacuba", "stop_id": 14108.0}, "geometry": {"type": "Point", "coordinates": [-99.188501, 19.458383]}, "record_timestamp": "2019-01-16T17:08:31.562-06:00"},{"datasetid": "estaciones-metro", "recordid": "1554956b9ac72e74c68018f93019333d6f9a177c", "fields": {"stop_lat": 19.49024062, "geometry": {"type": "Point", "coordinates": [-99.04635072, 19.49024062]}, "stop_lon": -99.04635072, "geopoint": [19.49024062, -99.04635072], "agency_id": "METRO", "trip_heads": "Buenavista - Ciudad Azteca", "stop_desc": "Metro B", "stop_name": "R\u00edo de los Remedios_1", "stop_id": 14222.0}, "geometry": {"type": "Point", "coordinates": [-99.04635072, 19.49024062]}, "record_timestamp": "2019-01-16T17:08:31.562-06:00"},{"datasetid": "estaciones-metro", "recordid": "fc881631357235e36719430a623b43d6090df36f", "fields": {"stop_lat": 19.4814715, "geometry": {"type": "Point", "coordinates": [-99.11815882, 19.4814715]}, "stop_lon": -99.11815882, "geopoint": [19.4814715, -99.11815882], "agency_id": "METRO", "trip_heads": "Mart\u00edn Carrera - El Rosario", "stop_desc": "Metro 6", "stop_name": "La Villa - Bas\u00edlica", "stop_id": 14191.0}, "geometry": {"type": "Point", "coordinates": [-99.11815882, 19.4814715]}, "record_timestamp": "2019-01-16T17:08:31.562-06:00"},{"datasetid": "estaciones-metro", "recordid": "f25fa409dadea024178d1a075f6cfe46cde6dd28", "fields": {"stop_lat": 19.41290022, "geometry": {"type": "Point", "coordinates": [-99.18207049, 19.41290022]}, "stop_lon": -99.18207049, "geopoint": [19.41290022, -99.18207049], "agency_id": "METRO", "trip_heads": "Observatorio - Pantitl\u00e1n", "stop_desc": "Metro 1", "stop_name": "Juanacatl\u00e1n", "stop_id": 14120.0}, "geometry": {"type": "Point", "coordinates": [-99.18207049, 19.41290022]}, "record_timestamp": "2019-01-16T17:08:31.562-06:00"},{"datasetid": "estaciones-metro", "recordid": "e4df21a5ab00822e2bba36c8b195bbd537aed2f3", "fields": {"stop_lat": 19.306124, "geometry": {"type": "Point", "coordinates": [-99.065867, 19.306124]}, "stop_lon": -99.065867, "geopoint": [19.306124, -99.065867], "agency_id": "METRO", "trip_heads": "Tl\u00e1huac - Mixcoac", "stop_desc": "Metro 12", "stop_name": "Tezonco", "stop_id": 14232.0}, "geometry": {"type": "Point", "coordinates": [-99.065867, 19.306124]}, "record_timestamp": "2019-01-16T17:08:31.562-06:00"},{"datasetid": "estaciones-metro", "recordid": "70db39376b4aa359c93ca82c9e0a61b3839afb24", "fields": {"stop_lat": 19.52084286, "geometry": {"type": "Point", "coordinates": [-99.03298259, 19.52084286]}, "stop_lon": -99.03298259, "geopoint": [19.52084286, -99.03298259], "agency_id": "METRO", "trip_heads": "Buenavista - Ciudad Azteca", "stop_desc": "Metro B", "stop_name": "Ol\u00edmpica", "stop_id": 14224.0}, "geometry": {"type": "Point", "coordinates": [-99.03298259, 19.52084286]}, "record_timestamp": "2019-01-16T17:08:31.562-06:00"},{"datasetid": "estaciones-metro", "recordid": "ac9ee754c86a45cb476ae9544b1a791bc1da9539", "fields": {"stop_lat": 19.38481791, "geometry": {"type": "Point", "coordinates": [-99.18661952, 19.38481791]}, "stop_lon": -99.18661952, "geopoint": [19.38481791, -99.18661952], "agency_id": "METRO", "trip_heads": "Barranca del Muerto - El Rosario", "stop_desc": "Metro 7", "stop_name": "San Antonio", "stop_id": 14084.0}, "geometry": {"type": "Point", "coordinates": [-99.18661952, 19.38481791]}, "record_timestamp": "2019-01-16T17:08:31.562-06:00"},{"datasetid": "estaciones-metro", "recordid": "95cd51f4b106074ed8774194f0c07a05b22298cf", "fields": {"stop_lat": 19.32433595, "geometry": {"type": "Point", "coordinates": [-99.17407751, 19.32433595]}, "stop_lon": -99.17407751, "geopoint": [19.32433595, -99.17407751], "agency_id": "METRO", "trip_heads": "Indios Verdes - Universidad", "stop_desc": "Metro 3", "stop_name": "Universidad", "stop_id": 14076.0}, "geometry": {"type": "Point", "coordinates": [-99.17407751, 19.32433595]}, "record_timestamp": "2019-01-16T17:08:31.562-06:00"},{"datasetid": "estaciones-metro", "recordid": "af8b2d202675c33a0b47e05fd3a714e4bc6d4a0a", "fields": {"stop_lat": 19.39604129, "geometry": {"type": "Point", "coordinates": [-99.15617108, 19.39604129]}, "stop_lon": -99.15617108, "geopoint": [19.39604129, -99.15617108], "agency_id": "METRO", "trip_heads": "Indios Verdes - Universidad", "stop_desc": "Metro 3", "stop_name": "Etiop\u00eda / Plaza de la Transpatencia", "stop_id": 14059.0}, "geometry": {"type": "Point", "coordinates": [-99.15617108, 19.39604129]}, "record_timestamp": "2019-01-16T17:08:31.562-06:00"},{"datasetid": "estaciones-metro", "recordid": "16a9e3f72ab0fb191d9e95168b4ac8b09f47b8a6", "fields": {"stop_lat": 19.36449442, "geometry": {"type": "Point", "coordinates": [-99.10931826, 19.36449442]}, "stop_lon": -99.10931826, "geopoint": [19.36449442, -99.10931826], "agency_id": "METRO", "trip_heads": "Garibaldi - Constituci\u00f3n de 1917", "stop_desc": "Metro 8", "stop_name": "Escuadr\u00f3n 201", "stop_id": 14088.0}, "geometry": {"type": "Point", "coordinates": [-99.10931826, 19.36449442]}, "record_timestamp": "2019-01-16T17:08:31.562-06:00"},{"datasetid": "estaciones-metro", "recordid": "eaafce2acb7726e036cd02d48dcf19a6e1ca49c2", "fields": {"stop_lat": 19.45077077, "geometry": {"type": "Point", "coordinates": [-99.07917023, 19.45077077]}, "stop_lon": -99.07917023, "geopoint": [19.45077077, -99.07917023], "agency_id": "METRO", "trip_heads": "Buenavista - Ciudad Azteca", "stop_desc": "Metro B", "stop_name": "Deportivo Ocean\u00eda", "stop_id": 14220.0}, "geometry": {"type": "Point", "coordinates": [-99.07917023, 19.45077077]}, "record_timestamp": "2019-01-16T17:08:31.562-06:00"},{"datasetid": "estaciones-metro", "recordid": "e3c07591e425e848552a96787c9ffa365b49233e", "fields": {"stop_lat": 19.41608763, "geometry": {"type": "Point", "coordinates": [-99.09070373, 19.41608763]}, "stop_lon": -99.09070373, "geopoint": [19.41608763, -99.09070373], "agency_id": "METRO", "trip_heads": "Observatorio - Pantitl\u00e1n", "stop_desc": "Metro 1", "stop_name": "G\u00f3mez Far\u00edas", "stop_id": 14052.0}, "geometry": {"type": "Point", "coordinates": [-99.09070373, 19.41608763]}, "record_timestamp": "2019-01-16T17:08:31.562-06:00"},{"datasetid": "estaciones-metro", "recordid": "9747288bc017acff4bea55091887c909b9a968b2", "fields": {"stop_lat": 19.43336942, "geometry": {"type": "Point", "coordinates": [-99.14771676, 19.43336942]}, "stop_lon": -99.14771676, "geopoint": [19.43336942, -99.14771676], "agency_id": "METRO", "trip_heads": "Indios Verdes - Universidad", "stop_desc": "Metro 3", "stop_name": "Ju\u00e1rez_1_3", "stop_id": 14138.0}, "geometry": {"type": "Point", "coordinates": [-99.14771676, 19.43336942]}, "record_timestamp": "2019-01-16T17:08:31.562-06:00"},{"datasetid": "estaciones-metro", "recordid": "c7755aef587839e239fad322f0f414e384335caa", "fields": {"stop_lat": 19.40853892, "geometry": {"type": "Point", "coordinates": [-99.13574338, 19.40853892]}, "stop_lon": -99.13574338, "geopoint": [19.40853892, -99.13574338], "agency_id": "METRO", "trip_heads": "Garibaldi - Constituci\u00f3n de 1917", "stop_desc": "Metro L\u00ednea 8 correspondencia con l\u00ednea 2 y l\u00ednea 9.", "stop_name": "Chabacano_1", "stop_id": 14155.0}, "geometry": {"type": "Point", "coordinates": [-99.13574338, 19.40853892]}, "record_timestamp": "2019-01-16T17:08:31.562-06:00"},{"datasetid": "estaciones-metro", "recordid": "63563e13285c6cccf6e4b6c382b31d1e3ef933fc", "fields": {"stop_lat": 19.41958866, "geometry": {"type": "Point", "coordinates": [-99.09606814, 19.41958866]}, "stop_lon": -99.09606814, "geopoint": [19.41958866, -99.09606814], "agency_id": "METRO", "trip_heads": "Observatorio - Pantitl\u00e1n", "stop_desc": "Metro 1", "stop_name": "Blvd. Puerto A\u00e9reo", "stop_id": 14053.0}, "geometry": {"type": "Point", "coordinates": [-99.09606814, 19.41958866]}, "record_timestamp": "2019-01-16T17:08:31.562-06:00"},{"datasetid": "estaciones-metro", "recordid": "d097a76013c37626c83a4d169ec0483d698779e1", "fields": {"stop_lat": 19.40575613, "geometry": {"type": "Point", "coordinates": [-99.1683054, 19.40575613]}, "stop_lon": -99.1683054, "geopoint": [19.40575613, -99.1683054], "agency_id": "METRO", "trip_heads": "Tacubaya - Pantitl\u00e1n", "stop_desc": "Metro 9", "stop_name": "Chilpancingo_1_2", "stop_id": 14110.0}, "geometry": {"type": "Point", "coordinates": [-99.1683054, 19.40575613]}, "record_timestamp": "2019-01-16T17:08:31.562-06:00"},{"datasetid": "estaciones-metro", "recordid": "77accaf0eb88e8dc3c545d5144065c26739f2679", "fields": {"stop_lat": 19.40636329, "geometry": {"type": "Point", "coordinates": [-99.15504456, 19.40636329]}, "stop_lon": -99.15504456, "geopoint": [19.40636329, -99.15504456], "agency_id": "METRO", "trip_heads": "Tacubaya - Pantitl\u00e1n", "stop_desc": "Metro L\u00ednea 9 correspondencia con l\u00ednea 3.", "stop_name": "Centro M\u00e9dico_1_2", "stop_id": 14109.0}, "geometry": {"type": "Point", "coordinates": [-99.15504456, 19.40636329]}, "record_timestamp": "2019-01-16T17:08:31.562-06:00"},{"datasetid": "estaciones-metro", "recordid": "88d46121f0b91ee0326d7ffe35dfc8462794596b", "fields": {"stop_lat": 19.45682033, "geometry": {"type": "Point", "coordinates": [-99.11388874, 19.45682033]}, "stop_lon": -99.11388874, "geopoint": [19.45682033, -99.11388874], "agency_id": "METRO", "trip_heads": "Mart\u00edn Carrera - Santa Anita", "stop_desc": "Metro L\u00ednea 4 correspondencia con l\u00ednea 5.", "stop_name": "Consulado", "stop_id": 14185.0}, "geometry": {"type": "Point", "coordinates": [-99.11388874, 19.45682033]}, "record_timestamp": "2019-01-16T17:08:31.562-06:00"},{"datasetid": "estaciones-metro", "recordid": "7f05a2c051f01458164386923a26e91870f8ba6e", "fields": {"stop_lat": 19.49067553, "geometry": {"type": "Point", "coordinates": [-99.18621182, 19.49067553]}, "stop_lon": -99.18621182, "geopoint": [19.49067553, -99.18621182], "agency_id": "METRO", "trip_heads": "Mart\u00edn Carrera - El Rosario", "stop_desc": "Metro 6", "stop_name": "Azcapotzalco_1", "stop_id": 14129.0}, "geometry": {"type": "Point", "coordinates": [-99.18621182, 19.49067553]}, "record_timestamp": "2019-01-16T17:08:31.562-06:00"},{"datasetid": "estaciones-metro", "recordid": "9f6cad9dbac9f1c966ffd92ab6bcfea7a5ae2f8b", "fields": {"stop_lat": 19.43098165, "geometry": {"type": "Point", "coordinates": [-99.14116144, 19.43098165]}, "stop_lon": -99.14116144, "geopoint": [19.43098165, -99.14116144], "agency_id": "METRO", "trip_heads": "Garibaldi - Constituci\u00f3n de 1917", "stop_desc": "Metro 8", "stop_name": "San Juan de Letr\u00e1n", "stop_id": 14142.0}, "geometry": {"type": "Point", "coordinates": [-99.14116144, 19.43098165]}, "record_timestamp": "2019-01-16T17:08:31.562-06:00"},{"datasetid": "estaciones-metro", "recordid": "c34aa5f50037e1b16c317f67731eea4d5adffef8", "fields": {"stop_lat": 19.46911098, "geometry": {"type": "Point", "coordinates": [-99.18985963, 19.46911098]}, "stop_lon": -99.18985963, "geopoint": [19.46911098, -99.18985963], "agency_id": "METRO", "trip_heads": "Barranca del Muerto - El Rosario", "stop_desc": "Metro 7", "stop_name": "Refiner\u00eda", "stop_id": 14107.0}, "geometry": {"type": "Point", "coordinates": [-99.18985963, 19.46911098]}, "record_timestamp": "2019-01-16T17:08:31.562-06:00"},{"datasetid": "estaciones-metro", "recordid": "099baf9b17421aad3044ef72f78eecbf37cf6b64", "fields": {"stop_lat": 19.414885, "geometry": {"type": "Point", "coordinates": [-99.072516, 19.414885]}, "stop_lon": -99.072516, "geopoint": [19.414885, -99.072516], "agency_id": "METRO", "trip_heads": "Tacubaya - Pantitl\u00e1n", "stop_desc": "Metro L\u00ednea 9 correspondencia con l\u00edneas 1 5 y A.", "stop_name": "Pantitl\u00e1n_1_3", "stop_id": 14226.0}, "geometry": {"type": "Point", "coordinates": [-99.072516, 19.414885]}, "record_timestamp": "2019-01-16T17:08:31.562-06:00"},{"datasetid": "estaciones-metro", "recordid": "d2d3cb4590e361187b391babf92c53592ddcc5a7", "fields": {"stop_lat": 19.35376487, "geometry": {"type": "Point", "coordinates": [-99.17542934, 19.35376487]}, "stop_lon": -99.17542934, "geopoint": [19.35376487, -99.17542934], "agency_id": "METRO", "trip_heads": "Indios Verdes - Universidad", "stop_desc": "Metro 3", "stop_name": "Viveros", "stop_id": 14081.0}, "geometry": {"type": "Point", "coordinates": [-99.17542934, 19.35376487]}, "record_timestamp": "2019-01-16T17:08:31.562-06:00"},{"datasetid": "estaciones-metro", "recordid": "5ea33e8459accd1bf219e3823ef5339c60fd4f2b", "fields": {"stop_lat": 19.42729875, "geometry": {"type": "Point", "coordinates": [-99.14912224, 19.42729875]}, "stop_lon": -99.14912224, "geopoint": [19.42729875, -99.14912224], "agency_id": "METRO", "trip_heads": "Observatorio - Pantitl\u00e1n", "stop_desc": "Metro L\u00ednea 1 correspondencia con l\u00ednea 3.", "stop_name": "Balderas_1_2", "stop_id": 14157.0}, "geometry": {"type": "Point", "coordinates": [-99.14912224, 19.42729875]}, "record_timestamp": "2019-01-16T17:08:31.562-06:00"},{"datasetid": "estaciones-metro", "recordid": "d93b37c21741b79a25db8f2b616840c1eea1e2bd", "fields": {"stop_lat": 19.42692438, "geometry": {"type": "Point", "coordinates": [-99.1488111, 19.42692438]}, "stop_lon": -99.1488111, "geopoint": [19.42692438, -99.1488111], "agency_id": "METRO", "trip_heads": "Indios Verdes - Universidad", "stop_desc": "Metro L\u00ednea 3 correspondencia con l\u00ednea 1.", "stop_name": "Balderas_1", "stop_id": 14139.0}, "geometry": {"type": "Point", "coordinates": [-99.1488111, 19.42692438]}, "record_timestamp": "2019-01-16T17:08:31.562-06:00"},{"datasetid": "estaciones-metro", "recordid": "6d1bd626e3600c3f9f70341d245a19a846e264a4", "fields": {"stop_lat": 19.478595, "geometry": {"type": "Point", "coordinates": [-99.140471, 19.478595]}, "stop_lon": -99.140471, "geopoint": [19.478595, -99.140471], "agency_id": "METRO", "trip_heads": "Pantitl\u00e1n - Polit\u00e9cnico", "stop_desc": "Metro 5", "stop_name": "Autobuses del Norte", "stop_id": 14193.0}, "geometry": {"type": "Point", "coordinates": [-99.140471, 19.478595]}, "record_timestamp": "2019-01-16T17:08:31.562-06:00"},{"datasetid": "estaciones-metro", "recordid": "a70ce0662c1eadcc5f69420e53d3d96c04a3e30e", "fields": {"stop_lat": 19.3642515, "geometry": {"type": "Point", "coordinates": [-99.00597811, 19.3642515]}, "stop_lon": -99.00597811, "geopoint": [19.3642515, -99.00597811], "agency_id": "METRO", "trip_heads": "La Paz - Pantitl\u00e1n", "stop_desc": "Metro A", "stop_name": "Acatitla", "stop_id": 14204.0}, "geometry": {"type": "Point", "coordinates": [-99.00597811, 19.3642515]}, "record_timestamp": "2019-01-16T17:08:31.562-06:00"},{"datasetid": "estaciones-metro", "recordid": "c37791e05b14d8cef5637b130c348edd062eb54f", "fields": {"stop_lat": 19.42720768, "geometry": {"type": "Point", "coordinates": [-99.14207339, 19.42720768]}, "stop_lon": -99.14207339, "geopoint": [19.42720768, -99.14207339], "agency_id": "METRO", "trip_heads": "Garibaldi - Constituci\u00f3n de 1917", "stop_desc": "Metro L\u00ednea 8 correspondencia con l\u00ednea 1.", "stop_name": "Salto del Agua", "stop_id": 14158.0}, "geometry": {"type": "Point", "coordinates": [-99.14207339, 19.42720768]}, "record_timestamp": "2019-01-16T17:08:31.562-06:00"},{"datasetid": "estaciones-metro", "recordid": "f189261f48d1a5886735a1fac137f08d1a757672", "fields": {"stop_lat": 19.43337954, "geometry": {"type": "Point", "coordinates": [-99.19079304, 19.43337954]}, "stop_lon": -99.19079304, "geopoint": [19.43337954, -99.19079304], "agency_id": "METRO", "trip_heads": "Barranca del Muerto - El Rosario", "stop_desc": "Metro 7", "stop_name": "Polanco", "stop_id": 14114.0}, "geometry": {"type": "Point", "coordinates": [-99.19079304, 19.43337954]}, "record_timestamp": "2019-01-16T17:08:31.562-06:00"},{"datasetid": "estaciones-metro", "recordid": "8270bdcface040460402dcba364428d14c934194", "fields": {"stop_lat": 19.48823803, "geometry": {"type": "Point", "coordinates": [-99.16249037, 19.48823803]}, "stop_lon": -99.16249037, "geopoint": [19.48823803, -99.16249037], "agency_id": "METRO", "trip_heads": "Mart\u00edn Carrera - El Rosario", "stop_desc": "Metro 6", "stop_name": "Norte 45_1", "stop_id": 14105.0}, "geometry": {"type": "Point", "coordinates": [-99.16249037, 19.48823803]}, "record_timestamp": "2019-01-16T17:08:31.562-06:00"},{"datasetid": "estaciones-metro", "recordid": "9c74d3f603214a716e7a25c7bf96b10ec9f1297e", "fields": {"stop_lat": 19.458219, "geometry": {"type": "Point", "coordinates": [-99.20294, 19.458219]}, "stop_lon": -99.20294, "geopoint": [19.458219, -99.20294], "agency_id": "METRO", "trip_heads": "Cuatro Caminos - Tasque\u00f1a", "stop_desc": "Metro 2", "stop_name": "Panteones", "stop_id": 14111.0}, "geometry": {"type": "Point", "coordinates": [-99.20294, 19.458219]}, "record_timestamp": "2019-01-16T17:08:31.562-06:00"},{"datasetid": "estaciones-metro", "recordid": "95b5f7437a07c92d683a9a55e0d594f905a6439b", "fields": {"stop_lat": 19.45668, "geometry": {"type": "Point", "coordinates": [-99.181555, 19.45668]}, "stop_lon": -99.181555, "geopoint": [19.45668, -99.181555], "agency_id": "METRO", "trip_heads": "Cuatro Caminos - Tasque\u00f1a", "stop_desc": "Metro 2", "stop_name": "Cuitl\u00e1huac_1_4", "stop_id": 14125.0}, "geometry": {"type": "Point", "coordinates": [-99.181555, 19.45668]}, "record_timestamp": "2019-01-16T17:08:31.562-06:00"},{"datasetid": "estaciones-metro", "recordid": "1725a928c156bfe0327c6052f291fe18fc33cad9", "fields": {"stop_lat": 19.39769, "geometry": {"type": "Point", "coordinates": [-99.113413, 19.39769]}, "stop_lon": -99.113413, "geopoint": [19.39769, -99.113413], "agency_id": "METRO", "trip_heads": "Garibaldi - Constituci\u00f3n de 1917", "stop_desc": "Metro 8", "stop_name": "Coyuya_1", "stop_id": 14065.0}, "geometry": {"type": "Point", "coordinates": [-99.113413, 19.39769]}, "record_timestamp": "2019-01-16T17:08:31.562-06:00"},{"datasetid": "estaciones-metro", "recordid": "9378d7a515d71a99bdff049ac7f415d3fd9eb3da", "fields": {"stop_lat": 19.36142746, "geometry": {"type": "Point", "coordinates": [-99.17056918, 19.36142746]}, "stop_lon": -99.17056918, "geopoint": [19.36142746, -99.17056918], "agency_id": "METRO", "trip_heads": "Indios Verdes - Universidad", "stop_desc": "Metro 3", "stop_name": "Coyoac\u00e1n", "stop_id": 14078.0}, "geometry": {"type": "Point", "coordinates": [-99.17056918, 19.36142746]}, "record_timestamp": "2019-01-16T17:08:31.562-06:00"},{"datasetid": "estaciones-metro", "recordid": "cc2e5c0603637494daeb6a215a3eb872f0081a66", "fields": {"stop_lat": 19.46907052, "geometry": {"type": "Point", "coordinates": [-99.13904786, 19.46907052]}, "stop_lon": -99.13904786, "geopoint": [19.46907052, -99.13904786], "agency_id": "METRO", "trip_heads": "Indios Verdes - Universidad", "stop_desc": "Metro L\u00ednea 3 correspondencia con l\u00ednea 5.", "stop_name": "La Raza_1_2", "stop_id": 14099.0}, "geometry": {"type": "Point", "coordinates": [-99.13904786, 19.46907052]}, "record_timestamp": "2019-01-16T17:08:31.562-06:00"},{"datasetid": "estaciones-metro", "recordid": "36091d4f9d7671a4c4983bccfb0677f98de035bb", "fields": {"stop_lat": 19.4159055, "geometry": {"type": "Point", "coordinates": [-99.13429499, 19.4159055]}, "stop_lon": -99.13429499, "geopoint": [19.4159055, -99.13429499], "agency_id": "METRO", "trip_heads": "Cuatro Caminos - Tasque\u00f1a", "stop_desc": "Metro 2", "stop_name": "San Antonio Abad", "stop_id": 14160.0}, "geometry": {"type": "Point", "coordinates": [-99.13429499, 19.4159055]}, "record_timestamp": "2019-01-16T17:08:31.562-06:00"},{"datasetid": "estaciones-metro", "recordid": "848b86971dc93b204e2d7e6d0374d62a385c2f7b", "fields": {"stop_lat": 19.41179726, "geometry": {"type": "Point", "coordinates": [-99.08322573, 19.41179726]}, "stop_lon": -99.08322573, "geopoint": [19.41179726, -99.08322573], "agency_id": "METRO", "trip_heads": "Observatorio - Pantitl\u00e1n", "stop_desc": "Metro 1", "stop_name": "Zaragoza", "stop_id": 14217.0}, "geometry": {"type": "Point", "coordinates": [-99.08322573, 19.41179726]}, "record_timestamp": "2019-01-16T17:08:31.562-06:00"},{"datasetid": "estaciones-metro", "recordid": "a3cb118dc7ed35ae0390142f090441af5ca53198", "fields": {"stop_lat": 19.42288725, "geometry": {"type": "Point", "coordinates": [-99.10281658, 19.42288725]}, "stop_lon": -99.10281658, "geopoint": [19.42288725, -99.10281658], "agency_id": "METRO", "trip_heads": "Observatorio - Pantitl\u00e1n", "stop_desc": "Metro 1", "stop_name": "Balbuena", "stop_id": 14172.0}, "geometry": {"type": "Point", "coordinates": [-99.10281658, 19.42288725]}, "record_timestamp": "2019-01-16T17:08:31.562-06:00"},{"datasetid": "estaciones-metro", "recordid": "f50ab24a75c73f732ac50c0a044e0373fd10112f", "fields": {"stop_lat": 19.45101356, "geometry": {"type": "Point", "coordinates": [-99.09598231, 19.45101356]}, "stop_lon": -99.09598231, "geopoint": [19.45101356, -99.09598231], "agency_id": "METRO", "trip_heads": "Pantitl\u00e1n - Polit\u00e9cnico", "stop_desc": "Metro 5", "stop_name": "Arag\u00f3n", "stop_id": 14060.0}, "geometry": {"type": "Point", "coordinates": [-99.09598231, 19.45101356]}, "record_timestamp": "2019-01-16T17:08:31.562-06:00"},{"datasetid": "estaciones-metro", "recordid": "62449201ab0b6e66a71fd65c5d8075715c10b139", "fields": {"stop_lat": 19.37625563, "geometry": {"type": "Point", "coordinates": [-99.18774605, 19.37625563]}, "stop_lon": -99.18774605, "geopoint": [19.37625563, -99.18774605], "agency_id": "METRO", "trip_heads": "Tl\u00e1huac - Mixcoac", "stop_desc": "Metro L\u00ednea 7 correspondencia con l\u00ednea 12.", "stop_name": "Mixcoac_1", "stop_id": 14079.0}, "geometry": {"type": "Point", "coordinates": [-99.18774605, 19.37625563]}, "record_timestamp": "2019-01-16T17:08:31.562-06:00"},{"datasetid": "estaciones-metro", "recordid": "0151421f50042250aa90a467aa040c00db69a007", "fields": {"stop_lat": 19.44048194, "geometry": {"type": "Point", "coordinates": [-99.09420133, 19.44048194]}, "stop_lon": -99.09420133, "geopoint": [19.44048194, -99.09420133], "agency_id": "METRO", "trip_heads": "Buenavista - Ciudad Azteca", "stop_desc": "Metro B", "stop_name": "Romero Rubio", "stop_id": 14073.0}, "geometry": {"type": "Point", "coordinates": [-99.09420133, 19.44048194]}, "record_timestamp": "2019-01-16T17:08:31.562-06:00"},{"datasetid": "estaciones-metro", "recordid": "93681e8d0360d82f6050a23b2dd775b2ff8ace8b", "fields": {"stop_lat": 19.50522896, "geometry": {"type": "Point", "coordinates": [-99.19948339, 19.50522896]}, "stop_lon": -99.19948339, "geopoint": [19.50522896, -99.19948339], "agency_id": "METRO", "trip_heads": "Mart\u00edn Carrera - El Rosario", "stop_desc": "Metro L\u00ednea 6 correspondencia con l\u00ednea 7.", "stop_name": "El Rosario_1", "stop_id": 14127.0}, "geometry": {"type": "Point", "coordinates": [-99.19948339, 19.50522896]}, "record_timestamp": "2019-01-16T17:08:31.562-06:00"},{"datasetid": "estaciones-metro", "recordid": "a9f602a517d64da4562eb5dc7e3f0cf74e9feed5", "fields": {"stop_lat": 19.443082, "geometry": {"type": "Point", "coordinates": [-99.139034, 19.443082]}, "stop_lon": -99.139034, "geopoint": [19.443082, -99.139034], "agency_id": "METRO", "trip_heads": "Garibaldi - Constituci\u00f3n de 1917", "stop_desc": "Metro L\u00ednea 8 correspondencia con l\u00ednea B.", "stop_name": "Garibaldi_1", "stop_id": 14169.0}, "geometry": {"type": "Point", "coordinates": [-99.139034, 19.443082]}, "record_timestamp": "2019-01-16T17:08:31.562-06:00"},{"datasetid": "estaciones-metro", "recordid": "5b11c9f0565381982ff204403c95d5fe78499c68", "fields": {"stop_lat": 19.40702104, "geometry": {"type": "Point", "coordinates": [-99.14433718, 19.40702104]}, "stop_lon": -99.14433718, "geopoint": [19.40702104, -99.14433718], "agency_id": "METRO", "trip_heads": "Tacubaya - Pantitl\u00e1n", "stop_desc": "Metro 9", "stop_name": "L\u00e1zaro C\u00e1rdenas", "stop_id": 14156.0}, "geometry": {"type": "Point", "coordinates": [-99.14433718, 19.40702104]}, "record_timestamp": "2019-01-16T17:08:31.562-06:00"},{"datasetid": "estaciones-metro", "recordid": "1058bb2d5e594f2dc51e1de1eece15c9c067b82f", "fields": {"stop_lat": 19.4613523, "geometry": {"type": "Point", "coordinates": [-99.06114578, 19.4613523]}, "stop_lon": -99.06114578, "geopoint": [19.4613523, -99.06114578], "agency_id": "METRO", "trip_heads": "Buenavista - Ciudad Azteca", "stop_desc": "Metro B", "stop_name": "Villa de Arag\u00f3n", "stop_id": 14211.0}, "geometry": {"type": "Point", "coordinates": [-99.06114578, 19.4613523]}, "record_timestamp": "2019-01-16T17:08:31.562-06:00"},{"datasetid": "estaciones-metro", "recordid": "be3863f4ca8ef456990dce3ede3a112db825c612", "fields": {"stop_lat": 19.51470467, "geometry": {"type": "Point", "coordinates": [-99.03568625, 19.51470467]}, "stop_lon": -99.03568625, "geopoint": [19.51470467, -99.03568625], "agency_id": "METRO", "trip_heads": "Buenavista - Ciudad Azteca", "stop_desc": "Metro B", "stop_name": "Tecnol\u00f3gico", "stop_id": 14225.0}, "geometry": {"type": "Point", "coordinates": [-99.03568625, 19.51470467]}, "record_timestamp": "2019-01-16T17:08:31.562-06:00"},{"datasetid": "estaciones-metro", "recordid": "8b717b53d2c355cdde29ffe6824f2710294ab58f", "fields": {"stop_lat": 19.44185787, "geometry": {"type": "Point", "coordinates": [-99.16094542, 19.44185787]}, "stop_lon": -99.16094542, "geopoint": [19.44185787, -99.16094542], "agency_id": "METRO", "trip_heads": "Cuatro Caminos - Tasque\u00f1a", "stop_desc": "Metro 2", "stop_name": "San Cosme", "stop_id": 14098.0}, "geometry": {"type": "Point", "coordinates": [-99.16094542, 19.44185787]}, "record_timestamp": "2019-01-16T17:08:31.562-06:00"},{"datasetid": "estaciones-metro", "recordid": "c08941cbc030b8a8661826c08a47dd140d970430", "fields": {"stop_lat": 19.350327, "geometry": {"type": "Point", "coordinates": [-99.074808, 19.350327]}, "stop_lon": -99.074808, "geopoint": [19.350327, -99.074808], "agency_id": "METRO", "trip_heads": "Garibaldi - Constituci\u00f3n de 1917", "stop_desc": "Metro 8", "stop_name": "UAM-I", "stop_id": 14201.0}, "geometry": {"type": "Point", "coordinates": [-99.074808, 19.350327]}, "record_timestamp": "2019-01-16T17:08:31.562-06:00"},{"datasetid": "estaciones-metro", "recordid": "adefa964d81ab0f5eb6e6f5e6bbc97f8b89a27f0", "fields": {"stop_lat": 19.359804, "geometry": {"type": "Point", "coordinates": [-98.995894, 19.359804]}, "stop_lon": -98.995894, "geopoint": [19.359804, -98.995894], "agency_id": "METRO", "trip_heads": "La Paz - Pantitl\u00e1n", "stop_desc": "Metro A", "stop_name": "Santa Marta", "stop_id": 14205.0}, "geometry": {"type": "Point", "coordinates": [-98.995894, 19.359804]}, "record_timestamp": "2019-01-16T17:08:31.562-06:00"},{"datasetid": "estaciones-metro", "recordid": "b1b1927a0f04eb425e0148bea91e767f637f7f99", "fields": {"stop_lat": 19.42530549, "geometry": {"type": "Point", "coordinates": [-99.19173717, 19.42530549]}, "stop_lon": -99.19173717, "geopoint": [19.42530549, -99.19173717], "agency_id": "METRO", "trip_heads": "Barranca del Muerto - El Rosario", "stop_desc": "Metro 7", "stop_name": "Auditorio", "stop_id": 14115.0}, "geometry": {"type": "Point", "coordinates": [-99.19173717, 19.42530549]}, "record_timestamp": "2019-01-16T17:08:31.562-06:00"},{"datasetid": "estaciones-metro", "recordid": "c1b634c1221f3b5e583c26fa27a1e98912ae7c35", "fields": {"stop_lat": 19.37292574, "geometry": {"type": "Point", "coordinates": [-99.10739779, 19.37292574]}, "stop_lon": -99.10739779, "geopoint": [19.37292574, -99.10739779], "agency_id": "METRO", "trip_heads": "Garibaldi - Constituci\u00f3n de 1917", "stop_desc": "Metro 8", "stop_name": "Aculco", "stop_id": 14087.0}, "geometry": {"type": "Point", "coordinates": [-99.10739779, 19.37292574]}, "record_timestamp": "2019-01-16T17:08:31.562-06:00"},{"datasetid": "estaciones-metro", "recordid": "ad0e0e85d0047ee0abdc72f8757a961145005184", "fields": {"stop_lat": 19.42543703, "geometry": {"type": "Point", "coordinates": [-99.13303971, 19.42543703]}, "stop_lon": -99.13303971, "geopoint": [19.42543703, -99.13303971], "agency_id": "METRO", "trip_heads": "Cuatro Caminos - Tasque\u00f1a", "stop_desc": "Metro L\u00ednea 2 correspondencia con l\u00ednea 1.", "stop_name": "Pino Su\u00e1rez_1", "stop_id": 14137.0}, "geometry": {"type": "Point", "coordinates": [-99.13303971, 19.42543703]}, "record_timestamp": "2019-01-16T17:08:31.562-06:00"},{"datasetid": "estaciones-metro", "recordid": "a33ce5ebf0902afb4ad1c80165a39926c411ea1e", "fields": {"stop_lat": 19.43380448, "geometry": {"type": "Point", "coordinates": [-99.08820391, 19.43380448]}, "stop_lon": -99.08820391, "geopoint": [19.43380448, -99.08820391], "agency_id": "METRO", "trip_heads": "Pantitl\u00e1n - Polit\u00e9cnico", "stop_desc": "Metro 5", "stop_name": "Terminal A\u00e9rea", "stop_id": 14212.0}, "geometry": {"type": "Point", "coordinates": [-99.08820391, 19.43380448]}, "record_timestamp": "2019-01-16T17:08:31.562-06:00"},{"datasetid": "estaciones-metro", "recordid": "5880582e5be07a519670b16143a13d5307053a39", "fields": {"stop_lat": 19.42189565, "geometry": {"type": "Point", "coordinates": [-99.17074084, 19.42189565]}, "stop_lon": -99.17074084, "geopoint": [19.42189565, -99.17074084], "agency_id": "METRO", "trip_heads": "Observatorio - Pantitl\u00e1n", "stop_desc": "Metro 1", "stop_name": "Sevilla", "stop_id": 14118.0}, "geometry": {"type": "Point", "coordinates": [-99.17074084, 19.42189565]}, "record_timestamp": "2019-01-16T17:08:31.562-06:00"},{"datasetid": "estaciones-metro", "recordid": "d781bbfde6e463c7bd09da94055d5c8c52d1bf08", "fields": {"stop_lat": 19.44256606, "geometry": {"type": "Point", "coordinates": [-99.12323356, 19.44256606]}, "stop_lon": -99.12323356, "geopoint": [19.44256606, -99.12323356], "agency_id": "METRO", "trip_heads": "Buenavista - Ciudad Azteca", "stop_desc": "Metro B", "stop_name": "Tepito", "stop_id": 14148.0}, "geometry": {"type": "Point", "coordinates": [-99.12323356, 19.44256606]}, "record_timestamp": "2019-01-16T17:08:31.562-06:00"},{"datasetid": "estaciones-metro", "recordid": "4b704692013c3453b49c6e6eed0671bc01b851db", "fields": {"stop_lat": 19.5039547, "geometry": {"type": "Point", "coordinates": [-99.20029879, 19.5039547]}, "stop_lon": -99.20029879, "geopoint": [19.5039547, -99.20029879], "agency_id": "METRO", "trip_heads": "Barranca del Muerto - El Rosario", "stop_desc": "Metro L\u00ednea 7 correspondencia con l\u00ednea 6.", "stop_name": "El Rosario_1_2", "stop_id": 14130.0}, "geometry": {"type": "Point", "coordinates": [-99.20029879, 19.5039547]}, "record_timestamp": "2019-01-16T17:08:31.562-06:00"},{"datasetid": "estaciones-metro", "recordid": "2d5f333eedce072d2f0f50c6b2df863e8074edb2", "fields": {"stop_lat": 19.44475133, "geometry": {"type": "Point", "coordinates": [-99.14501309, 19.44475133]}, "stop_lon": -99.14501309, "geopoint": [19.44475133, -99.14501309], "agency_id": "METRO", "trip_heads": "Indios Verdes - Universidad", "stop_desc": "Metro L\u00ednea 3 correspondencia con l\u00ednea B.", "stop_name": "Guerrero_1_3", "stop_id": 14164.0}, "geometry": {"type": "Point", "coordinates": [-99.14501309, 19.44475133]}, "record_timestamp": "2019-01-16T17:08:31.562-06:00"},{"datasetid": "estaciones-metro", "recordid": "b30a76289f19550c6b246ac5c746527af41d1cee", "fields": {"stop_lat": 19.42149092, "geometry": {"type": "Point", "coordinates": [-99.12033677, 19.42149092]}, "stop_lon": -99.12033677, "geopoint": [19.42149092, -99.12033677], "agency_id": "METRO", "trip_heads": "Mart\u00edn Carrera - Santa Anita", "stop_desc": "Metro 4", "stop_name": "Fray Servando", "stop_id": 14174.0}, "geometry": {"type": "Point", "coordinates": [-99.12033677, 19.42149092]}, "record_timestamp": "2019-01-16T17:08:31.562-06:00"},{"datasetid": "estaciones-metro", "recordid": "151ad57374aea7d783dc733a4b145d2b3e347597", "fields": {"stop_lat": 19.495315, "geometry": {"type": "Point", "coordinates": [-99.119141, 19.495315]}, "stop_lon": -99.119141, "geopoint": [19.495315, -99.119141], "agency_id": "METRO", "trip_heads": "Indios Verdes - Universidad", "stop_desc": "Metro 3", "stop_name": "Indios Verdes_1", "stop_id": 14186.0}, "geometry": {"type": "Point", "coordinates": [-99.119141, 19.495315]}, "record_timestamp": "2019-01-16T17:08:31.562-06:00"},{"datasetid": "estaciones-metro", "recordid": "63e7ccffe65dad3ce6d16ed33ab7eff2f43f0086", "fields": {"stop_lat": 19.36030391, "geometry": {"type": "Point", "coordinates": [-99.1448307, 19.36030391]}, "stop_lon": -99.1448307, "geopoint": [19.36030391, -99.1448307], "agency_id": "METRO", "trip_heads": "Tl\u00e1huac - Mixcoac", "stop_desc": "Metro L\u00ednea 12", "stop_name": "Ermita_1", "stop_id": 42430.0}, "geometry": {"type": "Point", "coordinates": [-99.1448307, 19.36030391]}, "record_timestamp": "2019-01-16T17:08:31.562-06:00"},{"datasetid": "estaciones-metro", "recordid": "95ebc583db5a754ac108f4e84927180af3bc5d04", "fields": {"stop_lat": 19.38628539, "geometry": {"type": "Point", "coordinates": [-99.15724397, 19.38628539]}, "stop_lon": -99.15724397, "geopoint": [19.38628539, -99.15724397], "agency_id": "METRO", "trip_heads": "Indios Verdes - Universidad", "stop_desc": "Metro 3", "stop_name": "Eugenia", "stop_id": 14074.0}, "geometry": {"type": "Point", "coordinates": [-99.15724397, 19.38628539]}, "record_timestamp": "2019-01-16T17:08:31.562-06:00"},{"datasetid": "estaciones-metro", "recordid": "0c59eff8da9d57adb49dedf65a7ecad8f307c112", "fields": {"stop_lat": 19.37046623, "geometry": {"type": "Point", "coordinates": [-99.15766239, 19.37046623]}, "stop_lon": -99.15766239, "geopoint": [19.37046623, -99.15766239], "agency_id": "METRO", "trip_heads": "Tl\u00e1huac - Mixcoac", "stop_desc": "Metro 12", "stop_name": "Parque de los Venados", "stop_id": 14240.0}, "geometry": {"type": "Point", "coordinates": [-99.15766239, 19.37046623]}, "record_timestamp": "2019-01-16T17:08:31.562-06:00"},{"datasetid": "estaciones-metro", "recordid": "066edd21b62774f5a3baeee0cced29a3bb2030c1", "fields": {"stop_lat": 19.40559422, "geometry": {"type": "Point", "coordinates": [-99.1784656, 19.40559422]}, "stop_lon": -99.1784656, "geopoint": [19.40559422, -99.1784656], "agency_id": "METRO", "trip_heads": "Tacubaya - Pantitl\u00e1n", "stop_desc": "Metro 9", "stop_name": "Patriotismo_1_2", "stop_id": 14121.0}, "geometry": {"type": "Point", "coordinates": [-99.1784656, 19.40559422]}, "record_timestamp": "2019-01-16T17:08:31.562-06:00"},{"datasetid": "estaciones-metro", "recordid": "9d6f96d721f2742cebdc97becdac035cb65921b2", "fields": {"stop_lat": 19.46290002, "geometry": {"type": "Point", "coordinates": [-99.13051844, 19.46290002]}, "stop_lon": -99.13051844, "geopoint": [19.46290002, -99.13051844], "agency_id": "METRO", "trip_heads": "Pantitl\u00e1n - Polit\u00e9cnico", "stop_desc": "Metro 5", "stop_name": "Misterios", "stop_id": 14104.0}, "geometry": {"type": "Point", "coordinates": [-99.13051844, 19.46290002]}, "record_timestamp": "2019-01-16T17:08:31.562-06:00"},{"datasetid": "estaciones-metro", "recordid": "e0e5079d7e17b3323e0948c473eb37fb262ea43c", "fields": {"stop_lat": 19.397486, "geometry": {"type": "Point", "coordinates": [-99.200669, 19.397486]}, "stop_lon": -99.200669, "geopoint": [19.397486, -99.200669], "agency_id": "METRO", "trip_heads": "Observatorio - Pantitl\u00e1n", "stop_desc": "Metro 1", "stop_name": "Observatorio", "stop_id": 14055.0}, "geometry": {"type": "Point", "coordinates": [-99.200669, 19.397486]}, "record_timestamp": "2019-01-16T17:08:31.562-06:00"},{"datasetid": "estaciones-metro", "recordid": "cd59935dd28050b2f619c66de727b5107e509955", "fields": {"stop_lat": 19.322002, "geometry": {"type": "Point", "coordinates": [-99.096696, 19.322002]}, "stop_lon": -99.096696, "geopoint": [19.322002, -99.096696], "agency_id": "METRO", "trip_heads": "Tl\u00e1huac - Mixcoac", "stop_desc": "Metro 12", "stop_name": "Lomas Estrella", "stop_id": 14235.0}, "geometry": {"type": "Point", "coordinates": [-99.096696, 19.322002]}, "record_timestamp": "2019-01-16T17:08:31.562-06:00"},{"datasetid": "estaciones-metro", "recordid": "4cbe98ce687a8461eb47ee13856b99762b478c88", "fields": {"stop_lat": 19.35048513, "geometry": {"type": "Point", "coordinates": [-98.96061659, 19.35048513]}, "stop_lon": -98.96061659, "geopoint": [19.35048513, -98.96061659], "agency_id": "METRO", "trip_heads": "La Paz - Pantitl\u00e1n", "stop_desc": "Metro A", "stop_name": "La Paz", "stop_id": 14207.0}, "geometry": {"type": "Point", "coordinates": [-98.96061659, 19.35048513]}, "record_timestamp": "2019-01-16T17:08:31.562-06:00"},{"datasetid": "estaciones-metro", "recordid": "3f895959622e94df111e447799a80850b3816123", "fields": {"stop_lat": 19.45520174, "geometry": {"type": "Point", "coordinates": [-99.1430819, 19.45520174]}, "stop_lon": -99.1430819, "geopoint": [19.45520174, -99.1430819], "agency_id": "METRO", "trip_heads": "Indios Verdes - Universidad", "stop_desc": "Metro 3", "stop_name": "Tlatelolco_1", "stop_id": 14100.0}, "geometry": {"type": "Point", "coordinates": [-99.1430819, 19.45520174]}, "record_timestamp": "2019-01-16T17:08:31.562-06:00"},{"datasetid": "estaciones-metro", "recordid": "fdeadca3e727eb9c0039e0c81d2c2c4dacca857e", "fields": {"stop_lat": 19.406106, "geometry": {"type": "Point", "coordinates": [-99.125973, 19.406106]}, "stop_lon": -99.125973, "geopoint": [19.406106, -99.125973], "agency_id": "METRO", "trip_heads": "Garibaldi - Constituci\u00f3n de 1917", "stop_desc": "Metro 8", "stop_name": "La Viga_1", "stop_id": 14143.0}, "geometry": {"type": "Point", "coordinates": [-99.125973, 19.406106]}, "record_timestamp": "2019-01-16T17:08:31.562-06:00"},{"datasetid": "estaciones-metro", "recordid": "af6a8e8c9e6a59d25eecd72d5636072edf5ac604", "fields": {"stop_lat": 19.45261196, "geometry": {"type": "Point", "coordinates": [-99.17546153, 19.45261196]}, "stop_lon": -99.17546153, "geopoint": [19.45261196, -99.17546153], "agency_id": "METRO", "trip_heads": "Cuatro Caminos - Tasque\u00f1a", "stop_desc": "Metro 2", "stop_name": "Popotla", "stop_id": 14123.0}, "geometry": {"type": "Point", "coordinates": [-99.17546153, 19.45261196]}, "record_timestamp": "2019-01-16T17:08:31.562-06:00"},{"datasetid": "estaciones-metro", "recordid": "a8b64b405745bf61ff4c78b287e8187f9f3ec143", "fields": {"stop_lat": 19.317492, "geometry": {"type": "Point", "coordinates": [-99.074719, 19.317492]}, "stop_lon": -99.074719, "geopoint": [19.317492, -99.074719], "agency_id": "METRO", "trip_heads": "Tl\u00e1huac - Mixcoac", "stop_desc": "Metro 12", "stop_name": "Perif\u00e9rico Ote", "stop_id": 14233.0}, "geometry": {"type": "Point", "coordinates": [-99.074719, 19.317492]}, "record_timestamp": "2019-01-16T17:08:31.562-06:00"},{"datasetid": "estaciones-metro", "recordid": "fdd9d6282dab7390271ce2e94e27af6bb82e8405", "fields": {"stop_lat": 19.30328601, "geometry": {"type": "Point", "coordinates": [-99.05831337, 19.30328601]}, "stop_lon": -99.05831337, "geopoint": [19.30328601, -99.05831337], "agency_id": "METRO", "trip_heads": "Tl\u00e1huac - Mixcoac", "stop_desc": "Metro 12", "stop_name": "Olivos", "stop_id": 14231.0}, "geometry": {"type": "Point", "coordinates": [-99.05831337, 19.30328601]}, "record_timestamp": "2019-01-16T17:08:31.562-06:00"},{"datasetid": "estaciones-metro", "recordid": "e1d966ad11c31e7c5028aa40ef2423b9f13fcf90", "fields": {"stop_lat": 19.43079953, "geometry": {"type": "Point", "coordinates": [-99.11457539, 19.43079953]}, "stop_lon": -99.11457539, "geopoint": [19.43079953, -99.11457539], "agency_id": "METRO", "trip_heads": "Observatorio - Pantitl\u00e1n", "stop_desc": "Metro L\u00ednea 1 correspondencia con l\u00ednea B.", "stop_name": "San L\u00e1zaro_1_5", "stop_id": 14179.0}, "geometry": {"type": "Point", "coordinates": [-99.11457539, 19.43079953]}, "record_timestamp": "2019-01-16T17:08:31.562-06:00"},{"datasetid": "estaciones-metro", "recordid": "ef1932071849ed63ef26452d5f68f93a64859b7e", "fields": {"stop_lat": 19.431822, "geometry": {"type": "Point", "coordinates": [-99.114463, 19.431822]}, "stop_lon": -99.114463, "geopoint": [19.431822, -99.114463], "agency_id": "METRO", "trip_heads": "Buenavista - Ciudad Azteca", "stop_desc": "Metro L\u00ednea B correspondencia con l\u00ednea 1.", "stop_name": "San L\u00e1zaro_1_4", "stop_id": 14147.0}, "geometry": {"type": "Point", "coordinates": [-99.114463, 19.431822]}, "record_timestamp": "2019-01-16T17:08:31.562-06:00"},{"datasetid": "estaciones-metro", "recordid": "9dadd44eaf9e79abaf70540e7629f949bf018a27", "fields": {"stop_lat": 19.29639028, "geometry": {"type": "Point", "coordinates": [-99.03402328, 19.29639028]}, "stop_lon": -99.03402328, "geopoint": [19.29639028, -99.03402328], "agency_id": "METRO", "trip_heads": "Tl\u00e1huac - Mixcoac", "stop_desc": "Metro 12", "stop_name": "Zapotitl\u00e1n", "stop_id": 14229.0}, "geometry": {"type": "Point", "coordinates": [-99.03402328, 19.29639028]}, "record_timestamp": "2019-01-16T17:08:31.562-06:00"},{"datasetid": "estaciones-metro", "recordid": "68021eeb0de6a010de3487e10075800f77c3a6d2", "fields": {"stop_lat": 19.28680057, "geometry": {"type": "Point", "coordinates": [-99.01443243, 19.28680057]}, "stop_lon": -99.01443243, "geopoint": [19.28680057, -99.01443243], "agency_id": "METRO", "trip_heads": "Tl\u00e1huac - Mixcoac", "stop_desc": "Metro 12", "stop_name": "Tl\u00e1huac", "stop_id": 14227.0}, "geometry": {"type": "Point", "coordinates": [-99.01443243, 19.28680057]}, "record_timestamp": "2019-01-16T17:08:31.562-06:00"},{"datasetid": "estaciones-metro", "recordid": "ae5dbb444af812094b26eb76dd623bb883f4a455", "fields": {"stop_lat": 19.4376997, "geometry": {"type": "Point", "coordinates": [-99.14730906, 19.4376997]}, "stop_lon": -99.14730906, "geopoint": [19.4376997, -99.14730906], "agency_id": "METRO", "trip_heads": "Cuatro Caminos - Tasque\u00f1a", "stop_desc": "Metro L\u00ednea 2 correspondencia con l\u00ednea 3.", "stop_name": "Hidalgo_1_2", "stop_id": 14167.0}, "geometry": {"type": "Point", "coordinates": [-99.14730906, 19.4376997]}, "record_timestamp": "2019-01-16T17:08:31.562-06:00"},{"datasetid": "estaciones-metro", "recordid": "8df87f97439972cc7a58eb14ec01783a5c93a1ee", "fields": {"stop_lat": 19.35570839, "geometry": {"type": "Point", "coordinates": [-99.10157204, 19.35570839]}, "stop_lon": -99.10157204, "geopoint": [19.35570839, -99.10157204], "agency_id": "METRO", "trip_heads": "Garibaldi - Constituci\u00f3n de 1917", "stop_desc": "Metro L\u00ednea 8 correspondencia con l\u00ednea 12.", "stop_name": "Atlalilco", "stop_id": 14066.0}, "geometry": {"type": "Point", "coordinates": [-99.10157204, 19.35570839]}, "record_timestamp": "2019-01-16T17:08:31.562-06:00"},{"datasetid": "estaciones-metro", "recordid": "9f02494090992b318177618c72c5d2227b530bc8", "fields": {"stop_lat": 19.42917056, "geometry": {"type": "Point", "coordinates": [-99.11890984, 19.42917056]}, "stop_lon": -99.11890984, "geopoint": [19.42917056, -99.11890984], "agency_id": "METRO", "trip_heads": "Mart\u00edn Carrera - Santa Anita", "stop_desc": "Metro L\u00ednea 4 correspondencia con l\u00ednea 1.", "stop_name": "Candelaria_1", "stop_id": 42487.0}, "geometry": {"type": "Point", "coordinates": [-99.11890984, 19.42917056]}, "record_timestamp": "2019-01-16T17:08:31.562-06:00"},{"datasetid": "estaciones-metro", "recordid": "49ca427017174965ff51b5c1d9ca75110d234b49", "fields": {"stop_lat": 19.489367, "geometry": {"type": "Point", "coordinates": [-99.194511, 19.489367]}, "stop_lon": -99.194511, "geopoint": [19.489367, -99.194511], "agency_id": "METRO", "trip_heads": "Barranca del Muerto - El Rosario", "stop_desc": "Metro 7", "stop_name": "Aquiles Serd\u00e1n", "stop_id": 14131.0}, "geometry": {"type": "Point", "coordinates": [-99.194511, 19.489367]}, "record_timestamp": "2019-01-16T17:08:31.562-06:00"},{"datasetid": "estaciones-metro", "recordid": "fe1e93b59bc92307130e42b3136ada3dcbd9bf8c", "fields": {"stop_lat": 19.53444312, "geometry": {"type": "Point", "coordinates": [-99.02711391, 19.53444312]}, "stop_lon": -99.02711391, "geopoint": [19.53444312, -99.02711391], "agency_id": "METRO", "trip_heads": "Buenavista - Ciudad Azteca", "stop_desc": "Metro B", "stop_name": "Ciudad Azteca", "stop_id": 14208.0}, "geometry": {"type": "Point", "coordinates": [-99.02711391, 19.53444312]}, "record_timestamp": "2019-01-16T17:08:31.562-06:00"},{"datasetid": "estaciones-metro", "recordid": "c39c901411b28dbdb731d05a6cc6dc67417a6f86", "fields": {"stop_lat": 19.47873042, "geometry": {"type": "Point", "coordinates": [-99.18894768, 19.47873042]}, "stop_lon": -99.18894768, "geopoint": [19.47873042, -99.18894768], "agency_id": "METRO", "trip_heads": "Barranca del Muerto - El Rosario", "stop_desc": "Metro 7", "stop_name": "Camarones", "stop_id": 14132.0}, "geometry": {"type": "Point", "coordinates": [-99.18894768, 19.47873042]}, "record_timestamp": "2019-01-16T17:08:31.562-06:00"},{"datasetid": "estaciones-metro", "recordid": "889bed342295a8a065e766466f5e11d2d544833b", "fields": {"stop_lat": 19.42698509, "geometry": {"type": "Point", "coordinates": [-99.14331794, 19.42698509]}, "stop_lon": -99.14331794, "geopoint": [19.42698509, -99.14331794], "agency_id": "METRO", "trip_heads": "Observatorio - Pantitl\u00e1n", "stop_desc": "Metro L\u00ednea 1 correspondencia con l\u00ednea 8.", "stop_name": "Salto del Agua_1", "stop_id": 42338.0}, "geometry": {"type": "Point", "coordinates": [-99.14331794, 19.42698509]}, "record_timestamp": "2019-01-16T17:08:31.562-06:00"},{"datasetid": "estaciones-metro", "recordid": "dba95891198734de0228ea37e95cef5d2c487d4c", "fields": {"stop_lat": 19.39122414, "geometry": {"type": "Point", "coordinates": [-99.18572903, 19.39122414]}, "stop_lon": -99.18572903, "geopoint": [19.39122414, -99.18572903], "agency_id": "METRO", "trip_heads": "Barranca del Muerto - El Rosario", "stop_desc": "Metro 7", "stop_name": "San Pedro de Los Pinos", "stop_id": 14063.0}, "geometry": {"type": "Point", "coordinates": [-99.18572903, 19.39122414]}, "record_timestamp": "2019-01-16T17:08:31.562-06:00"},{"datasetid": "estaciones-metro", "recordid": "3ddc4b7a44eb98411f390193aa9c54aeca95dc27", "fields": {"stop_lat": 19.43628327, "geometry": {"type": "Point", "coordinates": [-99.10342813, 19.43628327]}, "stop_lon": -99.10342813, "geopoint": [19.43628327, -99.10342813], "agency_id": "METRO", "trip_heads": "Buenavista - Ciudad Azteca", "stop_desc": "Metro B", "stop_name": "R. Flores Mag\u00f3n", "stop_id": 14146.0}, "geometry": {"type": "Point", "coordinates": [-99.10342813, 19.43628327]}, "record_timestamp": "2019-01-16T17:08:31.562-06:00"},{"datasetid": "estaciones-metro", "recordid": "5eae92b5af6c04a133075681762df3fd27995590", "fields": {"stop_lat": 19.294555, "geometry": {"type": "Point", "coordinates": [-99.023829, 19.294555]}, "stop_lon": -99.023829, "geopoint": [19.294555, -99.023829], "agency_id": "METRO", "trip_heads": "Tl\u00e1huac - Mixcoac", "stop_desc": "Metro 12", "stop_name": "Tlaltenco", "stop_id": 14228.0}, "geometry": {"type": "Point", "coordinates": [-99.023829, 19.294555]}, "record_timestamp": "2019-01-16T17:08:31.562-06:00"},{"datasetid": "estaciones-metro", "recordid": "0d7d50780c206da69b6f70ee2dfc55fadc4bedec", "fields": {"stop_lat": 19.35760127, "geometry": {"type": "Point", "coordinates": [-99.09341812, 19.35760127]}, "stop_lon": -99.09341812, "geopoint": [19.35760127, -99.09341812], "agency_id": "METRO", "trip_heads": "Garibaldi - Constituci\u00f3n de 1917", "stop_desc": "Metro 8", "stop_name": "Iztapalapa", "stop_id": 14067.0}, "geometry": {"type": "Point", "coordinates": [-99.09341812, 19.35760127]}, "record_timestamp": "2019-01-16T17:08:31.562-06:00"},{"datasetid": "estaciones-metro", "recordid": "0996c1e439e8373cababa8e1ad455aeca092a85e", "fields": {"stop_lat": 19.37360387, "geometry": {"type": "Point", "coordinates": [-99.17859435, 19.37360387]},